[
    {
        "city_code": "MUMBAI",
        "region_code": "MUMBAI",
        "sub_region_code": "MUMBAI",
        "region_slug": "mumbai",
        "latitude": "19.076",
        "longitude": "72.8777"
    },
    {
        "city_code": "MUMBAI",
        "region_code": "MUMBAI",
        "sub_region_code": "MWEST",
        "region_slug": "mumbai-western",
        "latitude": "19.12175",
        "longitude": "72.8504"
    },
    {
        "city_code": "MUMBAI",
        "region_code": "MUMBAI",
        "sub_region_code": "MCENT",
        "region_slug": "mumbai-south-central",
        "latitude": "19.0653",
        "longitude": "72.87942"
    },
    {
        "city_code": "MUMBAI",
        "region_code": "MUMBAI",
        "sub_region_code": "THAN",
        "region_slug": "navi-mumbai",
        "latitude": "19.1101",
        "longitude": "73.0625"
    },
    {
        "city_code": "MUMBAI",
        "region_code": "MUMBAI",
        "sub_region_code": "THNE",
        "region_slug": "thane",
        "latitude": "19.2183",
        "longitude": "72.9781"
    },
    {
        "city_code": "MUMBAI",
        "region_code": "MUMBAI",
        "sub_region_code": "KALYAN",
        "region_slug": "kalyan",
        "latitude": "19.241201",
        "longitude": "73.12906"
    },
    {
        "city_code": "MUMBAI",
        "region_code": "MUMBAI",
        "sub_region_code": "ULHA",
        "region_slug": "ulhasnagar",
        "latitude": "19.218",
        "longitude": "73.1631"
    },
    {
        "city_code": "NCR",
        "region_code": "NCR",
        "sub_region_code": "NCR",
        "region_slug": "national-capital-region-ncr",
        "latitude": "28.6139",
        "longitude": "77.209"
    },
    {
        "city_code": "NCR",
        "region_code": "NCR",
        "sub_region_code": "DELHI",
        "region_slug": "delhi",
        "latitude": "28.635308",
        "longitude": "77.22496"
    },
    {
        "city_code": "NCR",
        "region_code": "NCR",
        "sub_region_code": "GURG",
        "region_slug": "gurugram-gurgaon",
        "latitude": "28.4595",
        "longitude": "77.0266"
    },
    {
        "city_code": "NCR",
        "region_code": "NCR",
        "sub_region_code": "NOIDA",
        "region_slug": "noida",
        "latitude": "28.539",
        "longitude": "77.389"
    },
    {
        "city_code": "NCR",
        "region_code": "NCR",
        "sub_region_code": "GHAZ",
        "region_slug": "ghaziabad",
        "latitude": "28.682",
        "longitude": "77.427"
    },
    {
        "city_code": "NCR",
        "region_code": "NCR",
        "sub_region_code": "KUND",
        "region_slug": "kundli",
        "latitude": "28.86886",
        "longitude": "77.116706"
    },
    {
        "city_code": "NCR",
        "region_code": "NCR",
        "sub_region_code": "GRET",
        "region_slug": "greater-noida",
        "latitude": "28.4744",
        "longitude": "77.504"
    },
    {
        "city_code": "NCR",
        "region_code": "NCR",
        "sub_region_code": "FARI",
        "region_slug": "faridabad",
        "latitude": "28.4089",
        "longitude": "77.3178"
    },
    {
        "city_code": "NCR",
        "region_code": "NCR",
        "sub_region_code": "PKWA",
        "region_slug": "pilkhuwa",
        "latitude": "28.7076",
        "longitude": "77.6565"
    },
    {
        "city_code": "BANG",
        "region_code": "BANG",
        "sub_region_code": "BANG",
        "region_slug": "bengaluru",
        "latitude": "12.971599",
        "longitude": "77.594563"
    },
    {
        "city_code": "HYD",
        "region_code": "HYD",
        "sub_region_code": "HYD",
        "region_slug": "hyderabad",
        "latitude": "17.385044",
        "longitude": "78.486671"
    },
    {
        "city_code": "AHD",
        "region_code": "AHD",
        "sub_region_code": "AHD",
        "region_slug": "ahmedabad",
        "latitude": "23.039568",
        "longitude": "72.566005"
    },
    {
        "city_code": "CHD",
        "region_code": "CHD",
        "sub_region_code": "CHD",
        "region_slug": "chandigarh",
        "latitude": "30.733315",
        "longitude": "76.779418"
    },
    {
        "city_code": "CHD",
        "region_code": "CHD",
        "sub_region_code": "MOLI",
        "region_slug": "mohali",
        "latitude": "30.705704",
        "longitude": "76.721413"
    },
    {
        "city_code": "CHD",
        "region_code": "CHD",
        "sub_region_code": "ZRIK",
        "region_slug": "zirakpur",
        "latitude": "30.6425",
        "longitude": "76.8173"
    },
    {
        "city_code": "CHEN",
        "region_code": "CHEN",
        "sub_region_code": "CHEN",
        "region_slug": "chennai",
        "latitude": "13.056",
        "longitude": "80.206"
    },
    {
        "city_code": "PUNE",
        "region_code": "PUNE",
        "sub_region_code": "PUNE",
        "region_slug": "pune",
        "latitude": "18.52043",
        "longitude": "73.856744"
    },
    {
        "city_code": "KOLK",
        "region_code": "KOLK",
        "sub_region_code": "KOLK",
        "region_slug": "kolkata",
        "latitude": "22.641",
        "longitude": "88.411"
    },
    {
        "city_code": "KOCH",
        "region_code": "KOCH",
        "sub_region_code": "KOCH",
        "region_slug": "kochi",
        "latitude": "9.931233",
        "longitude": "76.267304"
    },
    {
        "city_code": "AALU",
        "region_code": "AALU",
        "sub_region_code": "AALU",
        "region_slug": "aalo",
        "latitude": "28.163707",
        "longitude": "94.787013"
    },
    {
        "city_code": "ABOR",
        "region_code": "ABOR",
        "sub_region_code": "ABOR",
        "region_slug": "abohar",
        "latitude": "30.1453",
        "longitude": "74.1993"
    },
    {
        "city_code": "ABRD",
        "region_code": "ABRD",
        "sub_region_code": "ABRD",
        "region_slug": "abu-road",
        "latitude": "24.531445",
        "longitude": "72.73336"
    },
    {
        "city_code": "ACHM",
        "region_code": "ACHM",
        "sub_region_code": "ACHM",
        "region_slug": "achampet",
        "latitude": "16.399035",
        "longitude": "78.636713"
    },
    {
        "city_code": "ACHA",
        "region_code": "ACHA",
        "sub_region_code": "ACHA",
        "region_slug": "acharapakkam",
        "latitude": "12.4035",
        "longitude": "79.8157"
    },
    {
        "city_code": "ADKI",
        "region_code": "ADKI",
        "sub_region_code": "ADKI",
        "region_slug": "addanki",
        "latitude": "15.8107",
        "longitude": "79.9724"
    },
    {
        "city_code": "ADIL",
        "region_code": "ADIL",
        "sub_region_code": "ADIL",
        "region_slug": "adilabad",
        "latitude": "19.6667",
        "longitude": "78.5333"
    },
    {
        "city_code": "ADIM",
        "region_code": "ADIM",
        "sub_region_code": "ADIM",
        "region_slug": "adimali",
        "latitude": "10.0115",
        "longitude": "76.9528"
    },
    {
        "city_code": "ADPR",
        "region_code": "ADPR",
        "sub_region_code": "ADPR",
        "region_slug": "adipur",
        "latitude": "23.073639",
        "longitude": "70.090562"
    },
    {
        "city_code": "ADNI",
        "region_code": "ADNI",
        "sub_region_code": "ADNI",
        "region_slug": "adoni",
        "latitude": "15.6322",
        "longitude": "77.2728"
    },
    {
        "city_code": "AGOR",
        "region_code": "AGOR",
        "sub_region_code": "AGOR",
        "region_slug": "agar-malwa",
        "latitude": "23.711416",
        "longitude": "76.00976"
    },
    {
        "city_code": "AGAR",
        "region_code": "AGAR",
        "sub_region_code": "AGAR",
        "region_slug": "agartala",
        "latitude": "23.8333",
        "longitude": "91.2667"
    },
    {
        "city_code": "AGIR",
        "region_code": "AGIR",
        "sub_region_code": "AGIR",
        "region_slug": "agiripalli",
        "latitude": "16.68",
        "longitude": "80.7852"
    },
    {
        "city_code": "AGRA",
        "region_code": "AGRA",
        "sub_region_code": "AGRA",
        "region_slug": "agra",
        "latitude": "27.17667",
        "longitude": "78.008075"
    },
    {
        "city_code": "AHMG",
        "region_code": "AHMG",
        "sub_region_code": "AHMG",
        "region_slug": "ahmedgarh",
        "latitude": "30.678192",
        "longitude": "75.827631"
    },
    {
        "city_code": "AHMED",
        "region_code": "AHMED",
        "sub_region_code": "AHMED",
        "region_slug": "ahmednagar",
        "latitude": "19.11033",
        "longitude": "74.672868"
    },
    {
        "city_code": "AHOR",
        "region_code": "AHOR",
        "sub_region_code": "AHOR",
        "region_slug": "ahore",
        "latitude": "25.3723",
        "longitude": "72.7777"
    },
    {
        "city_code": "AIZW",
        "region_code": "AIZW",
        "sub_region_code": "AIZW",
        "region_slug": "aizawl",
        "latitude": "23.7307",
        "longitude": "92.7173"
    },
    {
        "city_code": "AJMER",
        "region_code": "AJMER",
        "sub_region_code": "AJMER",
        "region_slug": "ajmer",
        "latitude": "26.45",
        "longitude": "74.64"
    },
    {
        "city_code": "AKAL",
        "region_code": "AKAL",
        "sub_region_code": "AKAL",
        "region_slug": "akaltara",
        "latitude": "22.024497",
        "longitude": "82.423551"
    },
    {
        "city_code": "AKBR",
        "region_code": "AKBR",
        "sub_region_code": "AKBR",
        "region_slug": "akbarpur",
        "latitude": "26.433258",
        "longitude": "82.518696"
    },
    {
        "city_code": "AKVD",
        "region_code": "AKVD",
        "sub_region_code": "AKVD",
        "region_slug": "akividu",
        "latitude": "16.5823",
        "longitude": "81.3784"
    },
    {
        "city_code": "AKLJ",
        "region_code": "AKLJ",
        "sub_region_code": "AKLJ",
        "region_slug": "akluj",
        "latitude": "17.8824",
        "longitude": "75.0205"
    },
    {
        "city_code": "AKOL",
        "region_code": "AKOL",
        "sub_region_code": "AKOL",
        "region_slug": "akola",
        "latitude": "20.70388",
        "longitude": "76.997093"
    },
    {
        "city_code": "TKOT",
        "region_code": "TKOT",
        "sub_region_code": "TKOT",
        "region_slug": "akot",
        "latitude": "21.0973",
        "longitude": "77.0536"
    },
    {
        "city_code": "ALAK",
        "region_code": "ALAK",
        "sub_region_code": "ALAK",
        "region_slug": "alakode",
        "latitude": "12.191",
        "longitude": "75.4673"
    },
    {
        "city_code": "ALNI",
        "region_code": "ALNI",
        "sub_region_code": "ALNI",
        "region_slug": "alangudi",
        "latitude": "10.3589",
        "longitude": "78.9769"
    },
    {
        "city_code": "ALKM",
        "region_code": "ALKM",
        "sub_region_code": "ALKM",
        "region_slug": "alangulam",
        "latitude": "8.8646",
        "longitude": "77.496"
    },
    {
        "city_code": "ALPZ",
        "region_code": "ALPZ",
        "sub_region_code": "ALPZ",
        "region_slug": "alappuzha",
        "latitude": "9.4981",
        "longitude": "76.3388"
    },
    {
        "city_code": "ALAR",
        "region_code": "ALAR",
        "sub_region_code": "ALAR",
        "region_slug": "alathur",
        "latitude": "10.6454",
        "longitude": "76.5458"
    },
    {
        "city_code": "ALBG",
        "region_code": "ALBG",
        "sub_region_code": "ALBG",
        "region_slug": "alibaug",
        "latitude": "18.6554",
        "longitude": "72.8671"
    },
    {
        "city_code": "ALI",
        "region_code": "ALI",
        "sub_region_code": "ALI",
        "region_slug": "aligarh",
        "latitude": "27.89381",
        "longitude": "78.068138"
    },
    {
        "city_code": "ALIP",
        "region_code": "ALIP",
        "sub_region_code": "ALIP",
        "region_slug": "alipurduar",
        "latitude": "26.4922",
        "longitude": "89.532"
    },
    {
        "city_code": "ALMO",
        "region_code": "ALMO",
        "sub_region_code": "ALMO",
        "region_slug": "almora",
        "latitude": "29.815",
        "longitude": "79.2902"
    },
    {
        "city_code": "ALSR",
        "region_code": "ALSR",
        "sub_region_code": "ALSR",
        "region_slug": "alsisar-rajasthan",
        "latitude": "28.3067",
        "longitude": "75.2873"
    },
    {
        "city_code": "ALUR",
        "region_code": "ALUR",
        "sub_region_code": "ALUR",
        "region_slug": "alur",
        "latitude": "12.9793",
        "longitude": "75.9913"
    },
    {
        "city_code": "ALWR",
        "region_code": "ALWR",
        "sub_region_code": "ALWR",
        "region_slug": "alwar",
        "latitude": "27.554637",
        "longitude": "76.611356"
    },
    {
        "city_code": "ADAM",
        "region_code": "ADAM",
        "sub_region_code": "ADAM",
        "region_slug": "amadalavalasa",
        "latitude": "18.4101",
        "longitude": "83.903"
    },
    {
        "city_code": "AMAP",
        "region_code": "AMAP",
        "sub_region_code": "AMAP",
        "region_slug": "amalapuram",
        "latitude": "16.5721",
        "longitude": "82.0009"
    },
    {
        "city_code": "AMLN",
        "region_code": "AMLN",
        "sub_region_code": "AMLN",
        "region_slug": "amalner",
        "latitude": "21.0419",
        "longitude": "75.0582"
    },
    {
        "city_code": "AMAN",
        "region_code": "AMAN",
        "sub_region_code": "AMAN",
        "region_slug": "amangal",
        "latitude": "16.8494",
        "longitude": "78.5303"
    },
    {
        "city_code": "ZAMA",
        "region_code": "ZAMA",
        "sub_region_code": "ZAMA",
        "region_slug": "amanpur",
        "latitude": "27.7126",
        "longitude": "78.7391"
    },
    {
        "city_code": "AVTI",
        "region_code": "AVTI",
        "sub_region_code": "AVTI",
        "region_slug": "amaravathi",
        "latitude": "16.573",
        "longitude": "80.3575"
    },
    {
        "city_code": "AMBG",
        "region_code": "AMBG",
        "sub_region_code": "AMBG",
        "region_slug": "ambajogai",
        "latitude": "18.7271",
        "longitude": "76.3811"
    },
    {
        "city_code": "AMB",
        "region_code": "AMB",
        "sub_region_code": "AMB",
        "region_slug": "ambala",
        "latitude": "30.378179",
        "longitude": "76.776697"
    },
    {
        "city_code": "AMBI",
        "region_code": "AMBI",
        "sub_region_code": "AMBI",
        "region_slug": "ambikapur",
        "latitude": "23.1355",
        "longitude": "83.1818"
    },
    {
        "city_code": "AMBR",
        "region_code": "AMBR",
        "sub_region_code": "AMBR",
        "region_slug": "ambur",
        "latitude": "12.7904",
        "longitude": "78.7166"
    },
    {
        "city_code": "AMGN",
        "region_code": "AMGN",
        "sub_region_code": "AMGN",
        "region_slug": "amgaon",
        "latitude": "21.367209",
        "longitude": "80.381205"
    },
    {
        "city_code": "AMRA",
        "region_code": "AMRA",
        "sub_region_code": "AMRA",
        "region_slug": "amravati",
        "latitude": "20.938882",
        "longitude": "77.780457"
    },
    {
        "city_code": "AMRE",
        "region_code": "AMRE",
        "sub_region_code": "AMRE",
        "region_slug": "amreli",
        "latitude": "21.60451",
        "longitude": "71.221475"
    },
    {
        "city_code": "AMRI",
        "region_code": "AMRI",
        "sub_region_code": "AMRI",
        "region_slug": "amritsar",
        "latitude": "31.633979",
        "longitude": "74.872264"
    },
    {
        "city_code": "AMRO",
        "region_code": "AMRO",
        "sub_region_code": "AMRO",
        "region_slug": "amroha",
        "latitude": "28.9044",
        "longitude": "78.4673"
    },
    {
        "city_code": "ANAI",
        "region_code": "ANAI",
        "sub_region_code": "ANAI",
        "region_slug": "anaikatti",
        "latitude": "11.1048",
        "longitude": "76.7683"
    },
    {
        "city_code": "ANKP",
        "region_code": "ANKP",
        "sub_region_code": "ANKP",
        "region_slug": "anakapalle",
        "latitude": "17.6896",
        "longitude": "82.9977"
    },
    {
        "city_code": "AND",
        "region_code": "AND",
        "sub_region_code": "AND",
        "region_slug": "anand",
        "latitude": "22.560869",
        "longitude": "72.954773"
    },
    {
        "city_code": "ANPR",
        "region_code": "ANPR",
        "sub_region_code": "ANPR",
        "region_slug": "anandapur",
        "latitude": "21.2148",
        "longitude": "86.1249"
    },
    {
        "city_code": "ANTT",
        "region_code": "ANTT",
        "sub_region_code": "ANTT",
        "region_slug": "anantapalli",
        "latitude": "16.975553",
        "longitude": "81.439344"
    },
    {
        "city_code": "ANAN",
        "region_code": "ANAN",
        "sub_region_code": "ANAN",
        "region_slug": "anantapur",
        "latitude": "14.5216",
        "longitude": "77.7452"
    },
    {
        "city_code": "ANPT",
        "region_code": "ANPT",
        "sub_region_code": "ANPT",
        "region_slug": "anaparthi",
        "latitude": "16.9341",
        "longitude": "81.9555"
    },
    {
        "city_code": "ANHL",
        "region_code": "ANHL",
        "sub_region_code": "ANHL",
        "region_slug": "anchal",
        "latitude": "8.93",
        "longitude": "76.9065"
    },
    {
        "city_code": "AANI",
        "region_code": "AANI",
        "sub_region_code": "AANI",
        "region_slug": "andaman-and-nicobar",
        "latitude": "11.7401",
        "longitude": "92.6586"
    },
    {
        "city_code": "ANEK",
        "region_code": "ANEK",
        "sub_region_code": "ANEK",
        "region_slug": "anekal",
        "latitude": "12.7105",
        "longitude": "77.6911"
    },
    {
        "city_code": "ANDM",
        "region_code": "ANDM",
        "sub_region_code": "ANDM",
        "region_slug": "angadipuram",
        "latitude": "10.9718",
        "longitude": "76.2103"
    },
    {
        "city_code": "ANGA",
        "region_code": "ANGA",
        "sub_region_code": "ANGA",
        "region_slug": "angamaly",
        "latitude": "10.1849",
        "longitude": "76.3753"
    },
    {
        "city_code": "ANGR",
        "region_code": "ANGR",
        "sub_region_code": "ANGR",
        "region_slug": "angara",
        "latitude": "16.77274",
        "longitude": "81.924555"
    },
    {
        "city_code": "ANGL",
        "region_code": "ANGL",
        "sub_region_code": "ANGL",
        "region_slug": "angul",
        "latitude": "20.9211",
        "longitude": "84.8568"
    },
    {
        "city_code": "ANJA",
        "region_code": "ANJA",
        "sub_region_code": "ANJA",
        "region_slug": "anjad",
        "latitude": "22.0431",
        "longitude": "75.0538"
    },
    {
        "city_code": "ANJR",
        "region_code": "ANJR",
        "sub_region_code": "ANJR",
        "region_slug": "anjar",
        "latitude": "23.1135",
        "longitude": "70.026"
    },
    {
        "city_code": "ANKV",
        "region_code": "ANKV",
        "sub_region_code": "ANKV",
        "region_slug": "anklav",
        "latitude": "22.3775",
        "longitude": "72.9992"
    },
    {
        "city_code": "ANKL",
        "region_code": "ANKL",
        "sub_region_code": "ANKL",
        "region_slug": "ankleshwar",
        "latitude": "21.6264",
        "longitude": "73.0152"
    },
    {
        "city_code": "ANKO",
        "region_code": "ANKO",
        "sub_region_code": "ANKO",
        "region_slug": "ankola",
        "latitude": "14.6653",
        "longitude": "74.3001"
    },
    {
        "city_code": "ANVR",
        "region_code": "ANVR",
        "sub_region_code": "ANVR",
        "region_slug": "annavaram",
        "latitude": "17.2789",
        "longitude": "82.4013"
    },
    {
        "city_code": "ANGI",
        "region_code": "ANGI",
        "sub_region_code": "ANGI",
        "region_slug": "annigeri",
        "latitude": "15.4273",
        "longitude": "75.4316"
    },
    {
        "city_code": "ATYR",
        "region_code": "ATYR",
        "sub_region_code": "ATYR",
        "region_slug": "anthiyur",
        "latitude": "11.5771",
        "longitude": "77.5877"
    },
    {
        "city_code": "APRA",
        "region_code": "APRA",
        "sub_region_code": "APRA",
        "region_slug": "apra",
        "latitude": "31.0861",
        "longitude": "75.8781"
    },
    {
        "city_code": "ARAK",
        "region_code": "ARAK",
        "sub_region_code": "ARAK",
        "region_slug": "arakkonam",
        "latitude": "13.0752",
        "longitude": "79.6558"
    },
    {
        "city_code": "AMBH",
        "region_code": "AMBH",
        "sub_region_code": "AMBH",
        "region_slug": "arambagh",
        "latitude": "22.88615",
        "longitude": "87.78427"
    },
    {
        "city_code": "ARMB",
        "region_code": "ARMB",
        "sub_region_code": "ARMB",
        "region_slug": "arambol",
        "latitude": "15.684689",
        "longitude": "73.703284"
    },
    {
        "city_code": "ARNT",
        "region_code": "ARNT",
        "sub_region_code": "ARNT",
        "region_slug": "aranthangi",
        "latitude": "10.1692",
        "longitude": "79.0023"
    },
    {
        "city_code": "ARAV",
        "region_code": "ARAV",
        "sub_region_code": "ARAV",
        "region_slug": "aravakurichi",
        "latitude": "10.7747",
        "longitude": "77.909"
    },
    {
        "city_code": "ARIY",
        "region_code": "ARIY",
        "sub_region_code": "ARIY",
        "region_slug": "ariyalur",
        "latitude": "11.2399",
        "longitude": "79.2902"
    },
    {
        "city_code": "ARGU",
        "region_code": "ARGU",
        "sub_region_code": "ARGU",
        "region_slug": "arkalgud",
        "latitude": "12.764",
        "longitude": "76.0609"
    },
    {
        "city_code": "ARMO",
        "region_code": "ARMO",
        "sub_region_code": "ARMO",
        "region_slug": "armoor",
        "latitude": "18.7895",
        "longitude": "78.2893"
    },
    {
        "city_code": "ARNI",
        "region_code": "ARNI",
        "sub_region_code": "ARNI",
        "region_slug": "arni",
        "latitude": "12.67",
        "longitude": "79.28"
    },
    {
        "city_code": "ARSI",
        "region_code": "ARSI",
        "sub_region_code": "ARSI",
        "region_slug": "arsikere",
        "latitude": "13.3105",
        "longitude": "76.2537"
    },
    {
        "city_code": "ARUP",
        "region_code": "ARUP",
        "sub_region_code": "ARUP",
        "region_slug": "aruppukottai",
        "latitude": "9.521597",
        "longitude": "78.088196"
    },
    {
        "city_code": "ASANSOL",
        "region_code": "ASANSOL",
        "sub_region_code": "ASANSOL",
        "region_slug": "asansol",
        "latitude": "23.6739",
        "longitude": "86.9524"
    },
    {
        "city_code": "AKMP",
        "region_code": "AKMP",
        "sub_region_code": "AKMP",
        "region_slug": "ashoknagar",
        "latitude": "24.577162",
        "longitude": "77.731527"
    },
    {
        "city_code": "ASNA",
        "region_code": "ASNA",
        "sub_region_code": "ASNA",
        "region_slug": "ashoknagar-west-bengal",
        "latitude": "22.8252",
        "longitude": "88.6287"
    },
    {
        "city_code": "ASTA",
        "region_code": "ASTA",
        "sub_region_code": "ASTA",
        "region_slug": "ashta",
        "latitude": "23.018",
        "longitude": "76.716"
    },
    {
        "city_code": "ASMA",
        "region_code": "ASMA",
        "sub_region_code": "ASMA",
        "region_slug": "ashta-maharashtra",
        "latitude": "16.9483",
        "longitude": "74.4115"
    },
    {
        "city_code": "ASIK",
        "region_code": "ASIK",
        "sub_region_code": "ASIK",
        "region_slug": "asika",
        "latitude": "19.6159",
        "longitude": "84.6649"
    },
    {
        "city_code": "ASWA",
        "region_code": "ASWA",
        "sub_region_code": "ASWA",
        "region_slug": "aswaraopeta",
        "latitude": "17.2445",
        "longitude": "81.1313"
    },
    {
        "city_code": "ATHG",
        "region_code": "ATHG",
        "sub_region_code": "ATHG",
        "region_slug": "athagarh",
        "latitude": "20.5174",
        "longitude": "85.6306"
    },
    {
        "city_code": "ATHN",
        "region_code": "ATHN",
        "sub_region_code": "ATHN",
        "region_slug": "athani",
        "latitude": "16.7269",
        "longitude": "75.0641"
    },
    {
        "city_code": "ATMK",
        "region_code": "ATMK",
        "sub_region_code": "ATMK",
        "region_slug": "atmakur-nellore",
        "latitude": "14.6167",
        "longitude": "79.6245"
    },
    {
        "city_code": "ATPA",
        "region_code": "ATPA",
        "sub_region_code": "ATPA",
        "region_slug": "atpadi",
        "latitude": "17.4287",
        "longitude": "74.9383"
    },
    {
        "city_code": "ATRA",
        "region_code": "ATRA",
        "sub_region_code": "ATRA",
        "region_slug": "atraulia",
        "latitude": "26.3337",
        "longitude": "82.9468"
    },
    {
        "city_code": "ATTO",
        "region_code": "ATTO",
        "sub_region_code": "ATTO",
        "region_slug": "attibele",
        "latitude": "12.779",
        "longitude": "77.7702"
    },
    {
        "city_code": "ATLI",
        "region_code": "ATLI",
        "sub_region_code": "ATLI",
        "region_slug": "attili",
        "latitude": "16.6885",
        "longitude": "81.6037"
    },
    {
        "city_code": "ATTI",
        "region_code": "ATTI",
        "sub_region_code": "ATTI",
        "region_slug": "attingal",
        "latitude": "8.6982",
        "longitude": "76.8137"
    },
    {
        "city_code": "ATTR",
        "region_code": "ATTR",
        "sub_region_code": "ATTR",
        "region_slug": "attur",
        "latitude": "11.5963",
        "longitude": "78.5989"
    },
    {
        "city_code": "AURA",
        "region_code": "AURA",
        "sub_region_code": "AURA",
        "region_slug": "aurangabad",
        "latitude": "19.876",
        "longitude": "75.349"
    },
    {
        "city_code": "AUBI",
        "region_code": "AUBI",
        "sub_region_code": "AUBI",
        "region_slug": "aurangabad-bihar",
        "latitude": "24.7033",
        "longitude": "84.3542"
    },
    {
        "city_code": "AURW",
        "region_code": "AURW",
        "sub_region_code": "AURW",
        "region_slug": "aurangabad-west-bengal",
        "latitude": "24.5976",
        "longitude": "88.0339"
    },
    {
        "city_code": "AURV",
        "region_code": "AURV",
        "sub_region_code": "AURV",
        "region_slug": "auroville",
        "latitude": "12.003136",
        "longitude": "79.801769"
    },
    {
        "city_code": "AUSH",
        "region_code": "AUSH",
        "sub_region_code": "AUSH",
        "region_slug": "aushapur",
        "latitude": "17.462",
        "longitude": "78.7356"
    },
    {
        "city_code": "AVII",
        "region_code": "AVII",
        "sub_region_code": "AVII",
        "region_slug": "avinashi",
        "latitude": "11.1914",
        "longitude": "77.2689"
    },
    {
        "city_code": "AYOD",
        "region_code": "AYOD",
        "sub_region_code": "AYOD",
        "region_slug": "ayodhya",
        "latitude": "26.7922",
        "longitude": "82.1998"
    },
    {
        "city_code": "AZMG",
        "region_code": "AZMG",
        "sub_region_code": "AZMG",
        "region_slug": "azamgarh",
        "latitude": "26.0737",
        "longitude": "83.1859"
    },
    {
        "city_code": "BKOT",
        "region_code": "BKOT",
        "sub_region_code": "BKOT",
        "region_slug": "b-kothakota",
        "latitude": "13.65674",
        "longitude": "78.265857"
    },
    {
        "city_code": "BAMA",
        "region_code": "BAMA",
        "sub_region_code": "BAMA",
        "region_slug": "badami",
        "latitude": "15.9186",
        "longitude": "75.6761"
    },
    {
        "city_code": "BADN",
        "region_code": "BADN",
        "sub_region_code": "BADN",
        "region_slug": "badaun",
        "latitude": "28.0337",
        "longitude": "79.1205"
    },
    {
        "city_code": "BADD",
        "region_code": "BADD",
        "sub_region_code": "BADD",
        "region_slug": "baddi",
        "latitude": "30.9578",
        "longitude": "76.7914"
    },
    {
        "city_code": "BAHR",
        "region_code": "BAHR",
        "sub_region_code": "BAHR",
        "region_slug": "badhra",
        "latitude": "29.1043",
        "longitude": "75.1655"
    },
    {
        "city_code": "BADA",
        "region_code": "BADA",
        "sub_region_code": "BADA",
        "region_slug": "badnagar",
        "latitude": "23.0504",
        "longitude": "75.3774"
    },
    {
        "city_code": "BADR",
        "region_code": "BADR",
        "sub_region_code": "BADR",
        "region_slug": "badnawar",
        "latitude": "23.0208",
        "longitude": "75.2336"
    },
    {
        "city_code": "BADV",
        "region_code": "BADV",
        "sub_region_code": "BADV",
        "region_slug": "badvel",
        "latitude": "14.7309",
        "longitude": "79.0589"
    },
    {
        "city_code": "BAAG",
        "region_code": "BAAG",
        "sub_region_code": "BAAG",
        "region_slug": "bagaha",
        "latitude": "27.1222",
        "longitude": "84.0722"
    },
    {
        "city_code": "BAGA",
        "region_code": "BAGA",
        "sub_region_code": "BAGA",
        "region_slug": "bagalkot",
        "latitude": "16.1725",
        "longitude": "75.6557"
    },
    {
        "city_code": "BBHA",
        "region_code": "BBHA",
        "sub_region_code": "BBHA",
        "region_slug": "bagbahara",
        "latitude": "21.0595",
        "longitude": "82.3723"
    },
    {
        "city_code": "BGPI",
        "region_code": "BGPI",
        "sub_region_code": "BGPI",
        "region_slug": "bagepalli",
        "latitude": "13.783573",
        "longitude": "77.792202"
    },
    {
        "city_code": "BAPU",
        "region_code": "BAPU",
        "sub_region_code": "BAPU",
        "region_slug": "bagha-purana",
        "latitude": "30.685679",
        "longitude": "75.094003"
    },
    {
        "city_code": "BGAM",
        "region_code": "BGAM",
        "sub_region_code": "BGAM",
        "region_slug": "baghmari",
        "latitude": "22.587",
        "longitude": "88.3876"
    },
    {
        "city_code": "BAGN",
        "region_code": "BAGN",
        "sub_region_code": "BAGN",
        "region_slug": "bagnan",
        "latitude": "22.4671",
        "longitude": "87.9702"
    },
    {
        "city_code": "BAGU",
        "region_code": "BAGU",
        "sub_region_code": "BAGU",
        "region_slug": "bagru",
        "latitude": "26.8093",
        "longitude": "75.5417"
    },
    {
        "city_code": "BAHD",
        "region_code": "BAHD",
        "sub_region_code": "BAHD",
        "region_slug": "bahadurgarh",
        "latitude": "28.6924",
        "longitude": "76.924"
    },
    {
        "city_code": "BHRH",
        "region_code": "BHRH",
        "sub_region_code": "BHRH",
        "region_slug": "bahraich",
        "latitude": "27.570867",
        "longitude": "81.598175"
    },
    {
        "city_code": "BAID",
        "region_code": "BAID",
        "sub_region_code": "BAID",
        "region_slug": "baidyabati",
        "latitude": "22.7958",
        "longitude": "88.3191"
    },
    {
        "city_code": "BIAH",
        "region_code": "BIAH",
        "sub_region_code": "BIAH",
        "region_slug": "baihar",
        "latitude": "22.1012",
        "longitude": "80.5494"
    },
    {
        "city_code": "BAIJ",
        "region_code": "BAIJ",
        "sub_region_code": "BAIJ",
        "region_slug": "baijnath",
        "latitude": "32.0521",
        "longitude": "76.6493"
    },
    {
        "city_code": "BKTH",
        "region_code": "BKTH",
        "sub_region_code": "BKTH",
        "region_slug": "baikunthpur",
        "latitude": "23.27915",
        "longitude": "82.563616"
    },
    {
        "city_code": "BAND",
        "region_code": "BAND",
        "sub_region_code": "BAND",
        "region_slug": "baindur",
        "latitude": "13.866593",
        "longitude": "74.627623"
    },
    {
        "city_code": "BART",
        "region_code": "BART",
        "sub_region_code": "BART",
        "region_slug": "bakhrahat",
        "latitude": "22.3879",
        "longitude": "88.20593"
    },
    {
        "city_code": "BLGT",
        "region_code": "BLGT",
        "sub_region_code": "BLGT",
        "region_slug": "balaghat",
        "latitude": "21.9667",
        "longitude": "80.3333"
    },
    {
        "city_code": "BALG",
        "region_code": "BALG",
        "sub_region_code": "BALG",
        "region_slug": "balangir",
        "latitude": "20.6723",
        "longitude": "83.1649"
    },
    {
        "city_code": "BLSR",
        "region_code": "BLSR",
        "sub_region_code": "BLSR",
        "region_slug": "balasore",
        "latitude": "21.3469",
        "longitude": "86.6611"
    },
    {
        "city_code": "BLIJ",
        "region_code": "BLIJ",
        "sub_region_code": "BLIJ",
        "region_slug": "balijipeta",
        "latitude": "18.6149",
        "longitude": "83.5297"
    },
    {
        "city_code": "BALD",
        "region_code": "BALD",
        "sub_region_code": "BALD",
        "region_slug": "balod",
        "latitude": "20.7311",
        "longitude": "81.2023"
    },
    {
        "city_code": "BBCH",
        "region_code": "BBCH",
        "sub_region_code": "BBCH",
        "region_slug": "baloda-bazar",
        "latitude": "21.656966",
        "longitude": "82.155384"
    },
    {
        "city_code": "BALO",
        "region_code": "BALO",
        "sub_region_code": "BALO",
        "region_slug": "balotra",
        "latitude": "25.8309",
        "longitude": "72.2401"
    },
    {
        "city_code": "BLUR",
        "region_code": "BLUR",
        "sub_region_code": "BLUR",
        "region_slug": "balrampur",
        "latitude": "27.4307",
        "longitude": "82.1805"
    },
    {
        "city_code": "BALU",
        "region_code": "BALU",
        "sub_region_code": "BALU",
        "region_slug": "balurghat",
        "latitude": "25.2373",
        "longitude": "88.7831"
    },
    {
        "city_code": "BNPL",
        "region_code": "BNPL",
        "sub_region_code": "BNPL",
        "region_slug": "banaganapalli",
        "latitude": "15.3184",
        "longitude": "78.2279"
    },
    {
        "city_code": "BANZ",
        "region_code": "BANZ",
        "sub_region_code": "BANZ",
        "region_slug": "banahatti",
        "latitude": "16.4823",
        "longitude": "75.1224"
    },
    {
        "city_code": "BANA",
        "region_code": "BANA",
        "sub_region_code": "BANA",
        "region_slug": "banaskantha",
        "latitude": "24.3455",
        "longitude": "71.7622"
    },
    {
        "city_code": "BNGA",
        "region_code": "BNGA",
        "sub_region_code": "BNGA",
        "region_slug": "banga",
        "latitude": "31.11",
        "longitude": "75.59"
    },
    {
        "city_code": "BAGO",
        "region_code": "BAGO",
        "sub_region_code": "BAGO",
        "region_slug": "bangaon",
        "latitude": "23.0467",
        "longitude": "88.8291"
    },
    {
        "city_code": "BAGT",
        "region_code": "BAGT",
        "sub_region_code": "BAGT",
        "region_slug": "bangarpet",
        "latitude": "12.9915",
        "longitude": "78.1788"
    },
    {
        "city_code": "BGPM",
        "region_code": "BGPM",
        "sub_region_code": "BGPM",
        "region_slug": "bangarupalem",
        "latitude": "13.5508",
        "longitude": "74.8185"
    },
    {
        "city_code": "BANK",
        "region_code": "BANK",
        "sub_region_code": "BANK",
        "region_slug": "banki",
        "latitude": "20.3766",
        "longitude": "85.529"
    },
    {
        "city_code": "BNKU",
        "region_code": "BNKU",
        "sub_region_code": "BNKU",
        "region_slug": "bankura",
        "latitude": "23.233061",
        "longitude": "87.048755"
    },
    {
        "city_code": "BNSA",
        "region_code": "BNSA",
        "sub_region_code": "BNSA",
        "region_slug": "banswada",
        "latitude": "18.3818",
        "longitude": "77.8758"
    },
    {
        "city_code": "BANS",
        "region_code": "BANS",
        "sub_region_code": "BANS",
        "region_slug": "banswara",
        "latitude": "23.549983",
        "longitude": "74.450557"
    },
    {
        "city_code": "BANT",
        "region_code": "BANT",
        "sub_region_code": "BANT",
        "region_slug": "bantumilli",
        "latitude": "16.3703",
        "longitude": "81.2714"
    },
    {
        "city_code": "BAPA",
        "region_code": "BAPA",
        "sub_region_code": "BAPA",
        "region_slug": "bapatla",
        "latitude": "15.9059",
        "longitude": "80.4716"
    },
    {
        "city_code": "BARK",
        "region_code": "BARK",
        "sub_region_code": "BARK",
        "region_slug": "barabanki",
        "latitude": "26.9955",
        "longitude": "81.2519"
    },
    {
        "city_code": "BARA",
        "region_code": "BARA",
        "sub_region_code": "BARA",
        "region_slug": "baramati",
        "latitude": "18.1841",
        "longitude": "74.6108"
    },
    {
        "city_code": "BRML",
        "region_code": "BRML",
        "sub_region_code": "BRML",
        "region_slug": "baramulla",
        "latitude": "34.1473",
        "longitude": "74.2649"
    },
    {
        "city_code": "BARN",
        "region_code": "BARN",
        "sub_region_code": "BARN",
        "region_slug": "baran",
        "latitude": "25.1011",
        "longitude": "76.5132"
    },
    {
        "city_code": "BSRT",
        "region_code": "BSRT",
        "sub_region_code": "BSRT",
        "region_slug": "barasat",
        "latitude": "22.341493",
        "longitude": "88.146189"
    },
    {
        "city_code": "BARL",
        "region_code": "BARL",
        "sub_region_code": "BARL",
        "region_slug": "baraut",
        "latitude": "29.0999",
        "longitude": "77.2606"
    },
    {
        "city_code": "BABR",
        "region_code": "BABR",
        "sub_region_code": "BABR",
        "region_slug": "barbil",
        "latitude": "22.105999",
        "longitude": "85.387459"
    },
    {
        "city_code": "BRDL",
        "region_code": "BRDL",
        "sub_region_code": "BRDL",
        "region_slug": "bardoli",
        "latitude": "21.1257",
        "longitude": "73.1121"
    },
    {
        "city_code": "BARE",
        "region_code": "BARE",
        "sub_region_code": "BARE",
        "region_slug": "bareilly",
        "latitude": "28.364",
        "longitude": "79.415"
    },
    {
        "city_code": "BEJA",
        "region_code": "BEJA",
        "sub_region_code": "BEJA",
        "region_slug": "bareja",
        "latitude": "22.8545",
        "longitude": "72.5918"
    },
    {
        "city_code": "BARG",
        "region_code": "BARG",
        "sub_region_code": "BARG",
        "region_slug": "bargarh",
        "latitude": "21.255",
        "longitude": "83.507"
    },
    {
        "city_code": "BRWA",
        "region_code": "BRWA",
        "sub_region_code": "BRWA",
        "region_slug": "barharwa",
        "latitude": "24.8566",
        "longitude": "87.7776"
    },
    {
        "city_code": "BHAI",
        "region_code": "BHAI",
        "sub_region_code": "BHAI",
        "region_slug": "barhi",
        "latitude": "24.303252",
        "longitude": "85.406079"
    },
    {
        "city_code": "BARI",
        "region_code": "BARI",
        "sub_region_code": "BARI",
        "region_slug": "baripada",
        "latitude": "21.9322",
        "longitude": "86.7517"
    },
    {
        "city_code": "BARM",
        "region_code": "BARM",
        "sub_region_code": "BARM",
        "region_slug": "barmer",
        "latitude": "25.7532",
        "longitude": "71.4181"
    },
    {
        "city_code": "BAR",
        "region_code": "BAR",
        "sub_region_code": "BAR",
        "region_slug": "barnala",
        "latitude": "30.3819",
        "longitude": "75.5468"
    },
    {
        "city_code": "BRPD",
        "region_code": "BRPD",
        "sub_region_code": "BRPD",
        "region_slug": "barpeta-road",
        "latitude": "26.5028",
        "longitude": "90.9655"
    },
    {
        "city_code": "BARR",
        "region_code": "BARR",
        "sub_region_code": "BARR",
        "region_slug": "barrackpore",
        "latitude": "22.752709",
        "longitude": "88.351656"
    },
    {
        "city_code": "BRHI",
        "region_code": "BRHI",
        "sub_region_code": "BRHI",
        "region_slug": "barshi",
        "latitude": "18.2334",
        "longitude": "75.6941"
    },
    {
        "city_code": "BARU",
        "region_code": "BARU",
        "sub_region_code": "BARU",
        "region_slug": "baruipur",
        "latitude": "22.3597",
        "longitude": "88.4318"
    },
    {
        "city_code": "BARQ",
        "region_code": "BARQ",
        "sub_region_code": "BARQ",
        "region_slug": "barwadih",
        "latitude": "23.843732",
        "longitude": "84.116386"
    },
    {
        "city_code": "BARH",
        "region_code": "BARH",
        "sub_region_code": "BARH",
        "region_slug": "barwaha",
        "latitude": "22.2532",
        "longitude": "76.0408"
    },
    {
        "city_code": "BRWN",
        "region_code": "BRWN",
        "sub_region_code": "BRWN",
        "region_slug": "barwani",
        "latitude": "22.0363",
        "longitude": "74.9033"
    },
    {
        "city_code": "BABA",
        "region_code": "BABA",
        "sub_region_code": "BABA",
        "region_slug": "basantpur",
        "latitude": "26.1728",
        "longitude": "84.6642"
    },
    {
        "city_code": "BIRH",
        "region_code": "BIRH",
        "sub_region_code": "BIRH",
        "region_slug": "basirhat",
        "latitude": "22.6574",
        "longitude": "88.8672"
    },
    {
        "city_code": "BASN",
        "region_code": "BASN",
        "sub_region_code": "BASN",
        "region_slug": "basna",
        "latitude": "21.277329",
        "longitude": "82.822188"
    },
    {
        "city_code": "BAST",
        "region_code": "BAST",
        "sub_region_code": "BAST",
        "region_slug": "basti",
        "latitude": "26.814",
        "longitude": "82.763"
    },
    {
        "city_code": "BHAT",
        "region_code": "BHAT",
        "sub_region_code": "BHAT",
        "region_slug": "bathinda",
        "latitude": "30.210994",
        "longitude": "74.945475"
    },
    {
        "city_code": "BTGD",
        "region_code": "BTGD",
        "sub_region_code": "BTGD",
        "region_slug": "batlagundu",
        "latitude": "10.1638",
        "longitude": "77.7591"
    },
    {
        "city_code": "BAVL",
        "region_code": "BAVL",
        "sub_region_code": "BAVL",
        "region_slug": "bavla",
        "latitude": "22.8298",
        "longitude": "72.3638"
    },
    {
        "city_code": "BAYA",
        "region_code": "BAYA",
        "sub_region_code": "BAYA",
        "region_slug": "bayad",
        "latitude": "23.2298",
        "longitude": "73.2205"
    },
    {
        "city_code": "BANY",
        "region_code": "BANY",
        "sub_region_code": "BANY",
        "region_slug": "bayana",
        "latitude": "26.9158",
        "longitude": "77.2894"
    },
    {
        "city_code": "BAZP",
        "region_code": "BAZP",
        "sub_region_code": "BAZP",
        "region_slug": "bazpur",
        "latitude": "29.1585",
        "longitude": "79.1464"
    },
    {
        "city_code": "BEAW",
        "region_code": "BEAW",
        "sub_region_code": "BEAW",
        "region_slug": "beawar",
        "latitude": "26.101054",
        "longitude": "74.319248"
    },
    {
        "city_code": "BEED",
        "region_code": "BEED",
        "sub_region_code": "BEED",
        "region_slug": "beed",
        "latitude": "18.996469",
        "longitude": "75.731634"
    },
    {
        "city_code": "BEGU",
        "region_code": "BEGU",
        "sub_region_code": "BEGU",
        "region_slug": "beguniapada",
        "latitude": "19.6245",
        "longitude": "84.9411"
    },
    {
        "city_code": "BEGS",
        "region_code": "BEGS",
        "sub_region_code": "BEGS",
        "region_slug": "begusarai",
        "latitude": "25.4182",
        "longitude": "86.1272"
    },
    {
        "city_code": "BELG",
        "region_code": "BELG",
        "sub_region_code": "BELG",
        "region_slug": "belagavi-belgaum",
        "latitude": "15.85036",
        "longitude": "74.504669"
    },
    {
        "city_code": "BLVD",
        "region_code": "BLVD",
        "sub_region_code": "BLVD",
        "region_slug": "belakavadi",
        "latitude": "12.256719",
        "longitude": "77.122898"
    },
    {
        "city_code": "BELB",
        "region_code": "BELB",
        "sub_region_code": "BELB",
        "region_slug": "belghoria",
        "latitude": "22.667",
        "longitude": "88.3796"
    },
    {
        "city_code": "BELL",
        "region_code": "BELL",
        "sub_region_code": "BELL",
        "region_slug": "bellampalli",
        "latitude": "19.0716",
        "longitude": "79.4912"
    },
    {
        "city_code": "BLRY",
        "region_code": "BLRY",
        "sub_region_code": "BLRY",
        "region_slug": "bellary",
        "latitude": "15.1394",
        "longitude": "76.9214"
    },
    {
        "city_code": "BELU",
        "region_code": "BELU",
        "sub_region_code": "BELU",
        "region_slug": "belur",
        "latitude": "13.1623",
        "longitude": "75.8679"
    },
    {
        "city_code": "BMTA",
        "region_code": "BMTA",
        "sub_region_code": "BMTA",
        "region_slug": "bemetara",
        "latitude": "21.6894",
        "longitude": "81.5596"
    },
    {
        "city_code": "BRAC",
        "region_code": "BRAC",
        "sub_region_code": "BRAC",
        "region_slug": "berachampa",
        "latitude": "22.696882",
        "longitude": "88.669667"
    },
    {
        "city_code": "BEHA",
        "region_code": "BEHA",
        "sub_region_code": "BEHA",
        "region_slug": "berhampore-wb",
        "latitude": "24.0988",
        "longitude": "88.2679"
    },
    {
        "city_code": "BERP",
        "region_code": "BERP",
        "sub_region_code": "BERP",
        "region_slug": "berhampur-odisha",
        "latitude": "19.315",
        "longitude": "84.7941"
    },
    {
        "city_code": "BEST",
        "region_code": "BEST",
        "sub_region_code": "BEST",
        "region_slug": "bestavaripeta",
        "latitude": "15.5503",
        "longitude": "79.1026"
    },
    {
        "city_code": "BTBM",
        "region_code": "BTBM",
        "sub_region_code": "BTBM",
        "region_slug": "betalbatim",
        "latitude": "15.300619",
        "longitude": "73.919917"
    },
    {
        "city_code": "BETB",
        "region_code": "BETB",
        "sub_region_code": "BETB",
        "region_slug": "betberia",
        "latitude": "22.3529",
        "longitude": "88.5771"
    },
    {
        "city_code": "BETH",
        "region_code": "BETH",
        "sub_region_code": "BETH",
        "region_slug": "bethamcherla",
        "latitude": "15.4576",
        "longitude": "78.1518"
    },
    {
        "city_code": "BETU",
        "region_code": "BETU",
        "sub_region_code": "BETU",
        "region_slug": "betul",
        "latitude": "21.919408",
        "longitude": "78.063812"
    },
    {
        "city_code": "BHDR",
        "region_code": "BHDR",
        "sub_region_code": "BHDR",
        "region_slug": "bhadrachalam",
        "latitude": "17.6688",
        "longitude": "80.8936"
    },
    {
        "city_code": "BHAD",
        "region_code": "BHAD",
        "sub_region_code": "BHAD",
        "region_slug": "bhadrak",
        "latitude": "21.0574",
        "longitude": "86.4963"
    },
    {
        "city_code": "BDVT",
        "region_code": "BDVT",
        "sub_region_code": "BDVT",
        "region_slug": "bhadravati",
        "latitude": "13.833",
        "longitude": "75.7081"
    },
    {
        "city_code": "BHAG",
        "region_code": "BHAG",
        "sub_region_code": "BHAG",
        "region_slug": "bhagalpur",
        "latitude": "25.2372",
        "longitude": "86.9746"
    },
    {
        "city_code": "BHAN",
        "region_code": "BHAN",
        "sub_region_code": "BHAN",
        "region_slug": "bhainsa",
        "latitude": "19.1031",
        "longitude": "77.9653"
    },
    {
        "city_code": "BHAA",
        "region_code": "BHAA",
        "sub_region_code": "BHAA",
        "region_slug": "bhandara",
        "latitude": "21.0736",
        "longitude": "79.8297"
    },
    {
        "city_code": "BASA",
        "region_code": "BASA",
        "sub_region_code": "BASA",
        "region_slug": "bharamasagara",
        "latitude": "14.3334",
        "longitude": "76.7048"
    },
    {
        "city_code": "BHRT",
        "region_code": "BHRT",
        "sub_region_code": "BHRT",
        "region_slug": "bharatpur",
        "latitude": "27.218081",
        "longitude": "77.493289"
    },
    {
        "city_code": "BHAR",
        "region_code": "BHAR",
        "sub_region_code": "BHAR",
        "region_slug": "bharuch",
        "latitude": "21.724644",
        "longitude": "73.002294"
    },
    {
        "city_code": "BTAP",
        "region_code": "BTAP",
        "sub_region_code": "BTAP",
        "region_slug": "bhatapara",
        "latitude": "21.7384",
        "longitude": "81.948"
    },
    {
        "city_code": "BHAZ",
        "region_code": "BHAZ",
        "sub_region_code": "BHAZ",
        "region_slug": "bhatgaon",
        "latitude": "21.1576",
        "longitude": "81.7199"
    },
    {
        "city_code": "BAKL",
        "region_code": "BAKL",
        "sub_region_code": "BAKL",
        "region_slug": "bhatkal",
        "latitude": "13.9978",
        "longitude": "74.5405"
    },
    {
        "city_code": "BATT",
        "region_code": "BATT",
        "sub_region_code": "BATT",
        "region_slug": "bhattiprolu",
        "latitude": "16.10376",
        "longitude": "80.78423"
    },
    {
        "city_code": "BHNI",
        "region_code": "BHNI",
        "sub_region_code": "BHNI",
        "region_slug": "bhavani",
        "latitude": "11.4501",
        "longitude": "77.6822"
    },
    {
        "city_code": "BHNG",
        "region_code": "BHNG",
        "sub_region_code": "BHNG",
        "region_slug": "bhavnagar",
        "latitude": "21.763997",
        "longitude": "72.156404"
    },
    {
        "city_code": "BHAW",
        "region_code": "BHAW",
        "sub_region_code": "BHAW",
        "region_slug": "bhawanipatna",
        "latitude": "19.9074",
        "longitude": "83.1642"
    },
    {
        "city_code": "BHMG",
        "region_code": "BHMG",
        "sub_region_code": "BHMG",
        "region_slug": "bheemgal",
        "latitude": "18.7016",
        "longitude": "78.4553"
    },
    {
        "city_code": "BHILAI",
        "region_code": "BHILAI",
        "sub_region_code": "BHILAI",
        "region_slug": "bhilai",
        "latitude": "21.209545",
        "longitude": "81.378813"
    },
    {
        "city_code": "BHIL",
        "region_code": "BHIL",
        "sub_region_code": "BHIL",
        "region_slug": "bhilwara",
        "latitude": "25.3214",
        "longitude": "74.587"
    },
    {
        "city_code": "BMDE",
        "region_code": "BMDE",
        "sub_region_code": "BMDE",
        "region_slug": "bhimadole",
        "latitude": "16.8175",
        "longitude": "81.2601"
    },
    {
        "city_code": "BHIM",
        "region_code": "BHIM",
        "sub_region_code": "BHIM",
        "region_slug": "bhimavaram",
        "latitude": "16.5449",
        "longitude": "81.5212"
    },
    {
        "city_code": "BIND",
        "region_code": "BIND",
        "sub_region_code": "BIND",
        "region_slug": "bhind",
        "latitude": "26.5638",
        "longitude": "78.7861"
    },
    {
        "city_code": "BHWD",
        "region_code": "BHWD",
        "sub_region_code": "BHWD",
        "region_slug": "bhiwadi",
        "latitude": "28.203681",
        "longitude": "76.822409"
    },
    {
        "city_code": "BHWN",
        "region_code": "BHWN",
        "sub_region_code": "BHWN",
        "region_slug": "bhiwani",
        "latitude": "28.799",
        "longitude": "76.1335"
    },
    {
        "city_code": "BHOG",
        "region_code": "BHOG",
        "sub_region_code": "BHOG",
        "region_slug": "bhogapuram",
        "latitude": "18.0307",
        "longitude": "83.4937"
    },
    {
        "city_code": "BHON",
        "region_code": "BHON",
        "sub_region_code": "BHON",
        "region_slug": "bhongir",
        "latitude": "17.5035",
        "longitude": "78.8892"
    },
    {
        "city_code": "BHOP",
        "region_code": "BHOP",
        "sub_region_code": "BHOP",
        "region_slug": "bhopal",
        "latitude": "23.259933",
        "longitude": "77.412615"
    },
    {
        "city_code": "BHUB",
        "region_code": "BHUB",
        "sub_region_code": "BHUB",
        "region_slug": "bhubaneswar",
        "latitude": "20.296059",
        "longitude": "85.82454"
    },
    {
        "city_code": "BHUJ",
        "region_code": "BHUJ",
        "sub_region_code": "BHUJ",
        "region_slug": "bhuj",
        "latitude": "23.250736",
        "longitude": "69.633901"
    },
    {
        "city_code": "BHUN",
        "region_code": "BHUN",
        "sub_region_code": "BHUN",
        "region_slug": "bhuntar",
        "latitude": "31.8944",
        "longitude": "77.2178"
    },
    {
        "city_code": "BHUP",
        "region_code": "BHUP",
        "sub_region_code": "BHUP",
        "region_slug": "bhupalpalle",
        "latitude": "18.4314",
        "longitude": "79.8605"
    },
    {
        "city_code": "BHUS",
        "region_code": "BHUS",
        "sub_region_code": "BHUS",
        "region_slug": "bhusawal",
        "latitude": "21.04552",
        "longitude": "75.801096"
    },
    {
        "city_code": "BHUT",
        "region_code": "BHUT",
        "sub_region_code": "BHUT",
        "region_slug": "bhutan",
        "latitude": "27.413755",
        "longitude": "90.404506"
    },
    {
        "city_code": "BHUV",
        "region_code": "BHUV",
        "sub_region_code": "BHUV",
        "region_slug": "bhuvanagiri",
        "latitude": "11.4459",
        "longitude": "79.653"
    },
    {
        "city_code": "BIAR",
        "region_code": "BIAR",
        "sub_region_code": "BIAR",
        "region_slug": "biaora",
        "latitude": "23.9186",
        "longitude": "76.9113"
    },
    {
        "city_code": "BBNG",
        "region_code": "BBNG",
        "sub_region_code": "BBNG",
        "region_slug": "bibinagar",
        "latitude": "17.4723",
        "longitude": "78.7974"
    },
    {
        "city_code": "BHCK",
        "region_code": "BHCK",
        "sub_region_code": "BHCK",
        "region_slug": "bichkunda",
        "latitude": "18.4014",
        "longitude": "77.7066"
    },
    {
        "city_code": "BIDI",
        "region_code": "BIDI",
        "sub_region_code": "BIDI",
        "region_slug": "bidadi",
        "latitude": "12.7984",
        "longitude": "77.3872"
    },
    {
        "city_code": "BIDR",
        "region_code": "BIDR",
        "sub_region_code": "BIDR",
        "region_slug": "bidar",
        "latitude": "17.920053",
        "longitude": "77.519781"
    },
    {
        "city_code": "BIHS",
        "region_code": "BIHS",
        "sub_region_code": "BIHS",
        "region_slug": "bihar-sharif",
        "latitude": "25.205",
        "longitude": "85.5174"
    },
    {
        "city_code": "BIHP",
        "region_code": "BIHP",
        "sub_region_code": "BIHP",
        "region_slug": "bihpuria",
        "latitude": "27.0191",
        "longitude": "93.9216"
    },
    {
        "city_code": "BINW",
        "region_code": "BINW",
        "sub_region_code": "BINW",
        "region_slug": "bijainagar",
        "latitude": "25.9268",
        "longitude": "74.6506"
    },
    {
        "city_code": "BIJ",
        "region_code": "BIJ",
        "sub_region_code": "BIJ",
        "region_slug": "bijnor",
        "latitude": "29.372442",
        "longitude": "78.135847"
    },
    {
        "city_code": "BIJO",
        "region_code": "BIJO",
        "sub_region_code": "BIJO",
        "region_slug": "bijoynagar",
        "latitude": "26.100732",
        "longitude": "91.503208"
    },
    {
        "city_code": "BIK",
        "region_code": "BIK",
        "sub_region_code": "BIK",
        "region_slug": "bikaner",
        "latitude": "28.009436",
        "longitude": "73.300653"
    },
    {
        "city_code": "BANJ",
        "region_code": "BANJ",
        "sub_region_code": "BANJ",
        "region_slug": "bikramganj",
        "latitude": "25.2233",
        "longitude": "84.2664"
    },
    {
        "city_code": "BILR",
        "region_code": "BILR",
        "sub_region_code": "BILR",
        "region_slug": "bilara",
        "latitude": "26.168768",
        "longitude": "73.70036"
    },
    {
        "city_code": "BILA",
        "region_code": "BILA",
        "sub_region_code": "BILA",
        "region_slug": "bilaspur",
        "latitude": "22.063077",
        "longitude": "82.103576"
    },
    {
        "city_code": "BIPS",
        "region_code": "BIPS",
        "sub_region_code": "BIPS",
        "region_slug": "bilaspur-himachal-pradesh",
        "latitude": "31.4009",
        "longitude": "76.379691"
    },
    {
        "city_code": "BILG",
        "region_code": "BILG",
        "sub_region_code": "BILG",
        "region_slug": "bilgi",
        "latitude": "16.340545",
        "longitude": "75.629668"
    },
    {
        "city_code": "BILI",
        "region_code": "BILI",
        "sub_region_code": "BILI",
        "region_slug": "bilimora",
        "latitude": "20.769",
        "longitude": "72.9778"
    },
    {
        "city_code": "BILL",
        "region_code": "BILL",
        "sub_region_code": "BILL",
        "region_slug": "billawar",
        "latitude": "32.6136",
        "longitude": "75.6041"
    },
    {
        "city_code": "BIRL",
        "region_code": "BIRL",
        "sub_region_code": "BIRL",
        "region_slug": "biraul",
        "latitude": "25.9426",
        "longitude": "86.2438"
    },
    {
        "city_code": "BIRR",
        "region_code": "BIRR",
        "sub_region_code": "BIRR",
        "region_slug": "birra",
        "latitude": "21.7553",
        "longitude": "82.7935"
    },
    {
        "city_code": "VVDF",
        "region_code": "VVDF",
        "sub_region_code": "VVDF",
        "region_slug": "bishnupur",
        "latitude": "23.0679",
        "longitude": "87.3165"
    },
    {
        "city_code": "BSRM",
        "region_code": "BSRM",
        "sub_region_code": "BSRM",
        "region_slug": "bishrampur",
        "latitude": "23.22001",
        "longitude": "82.84999"
    },
    {
        "city_code": "BICH",
        "region_code": "BICH",
        "sub_region_code": "BICH",
        "region_slug": "biswanath-chariali",
        "latitude": "26.7267",
        "longitude": "93.1479"
    },
    {
        "city_code": "BOBB",
        "region_code": "BOBB",
        "sub_region_code": "BOBB",
        "region_slug": "bobbili",
        "latitude": "18.573504",
        "longitude": "83.357791"
    },
    {
        "city_code": "BODH",
        "region_code": "BODH",
        "sub_region_code": "BODH",
        "region_slug": "bodhan",
        "latitude": "18.6794",
        "longitude": "77.8767"
    },
    {
        "city_code": "BODI",
        "region_code": "BODI",
        "sub_region_code": "BODI",
        "region_slug": "bodinayakanur",
        "latitude": "10.0106",
        "longitude": "77.3497"
    },
    {
        "city_code": "BOIS",
        "region_code": "BOIS",
        "sub_region_code": "BOIS",
        "region_slug": "boisar",
        "latitude": "19.8",
        "longitude": "72.75"
    },
    {
        "city_code": "BOKA",
        "region_code": "BOKA",
        "sub_region_code": "BOKA",
        "region_slug": "bokaro",
        "latitude": "23.6693",
        "longitude": "86.1511"
    },
    {
        "city_code": "BLPR",
        "region_code": "BLPR",
        "sub_region_code": "BLPR",
        "region_slug": "bolpur",
        "latitude": "23.66837",
        "longitude": "87.682201"
    },
    {
        "city_code": "BMDA",
        "region_code": "BMDA",
        "sub_region_code": "BMDA",
        "region_slug": "bomdila",
        "latitude": "27.264494",
        "longitude": "92.415932"
    },
    {
        "city_code": "BOMM",
        "region_code": "BOMM",
        "sub_region_code": "BOMM",
        "region_slug": "bommidi",
        "latitude": "11.9836",
        "longitude": "78.2463"
    },
    {
        "city_code": "BNKL",
        "region_code": "BNKL",
        "sub_region_code": "BNKL",
        "region_slug": "bonakal",
        "latitude": "17.0252",
        "longitude": "80.2642"
    },
    {
        "city_code": "BONG",
        "region_code": "BONG",
        "sub_region_code": "BONG",
        "region_slug": "bongaigaon",
        "latitude": "26.489553",
        "longitude": "90.500879"
    },
    {
        "city_code": "BONI",
        "region_code": "BONI",
        "sub_region_code": "BONI",
        "region_slug": "bongaon",
        "latitude": "23.044",
        "longitude": "88.8277"
    },
    {
        "city_code": "BORM",
        "region_code": "BORM",
        "sub_region_code": "BORM",
        "region_slug": "borsad",
        "latitude": "22.4171",
        "longitude": "72.8967"
    },
    {
        "city_code": "BOTA",
        "region_code": "BOTA",
        "sub_region_code": "BOTA",
        "region_slug": "botad",
        "latitude": "22.172062",
        "longitude": "71.659544"
    },
    {
        "city_code": "KHUB",
        "region_code": "KHUB",
        "sub_region_code": "KHUB",
        "region_slug": "brahmapur",
        "latitude": "19.308232",
        "longitude": "84.738217"
    },
    {
        "city_code": "BHMP",
        "region_code": "BHMP",
        "sub_region_code": "BHMP",
        "region_slug": "brahmapuri",
        "latitude": "20.609698",
        "longitude": "79.855912"
    },
    {
        "city_code": "BJNG",
        "region_code": "BJNG",
        "sub_region_code": "BJNG",
        "region_slug": "brajrajnagar",
        "latitude": "21.8286",
        "longitude": "83.9215"
    },
    {
        "city_code": "BCHR",
        "region_code": "BCHR",
        "sub_region_code": "BCHR",
        "region_slug": "buchireddypalem",
        "latitude": "14.5351",
        "longitude": "79.8773"
    },
    {
        "city_code": "BUDL",
        "region_code": "BUDL",
        "sub_region_code": "BUDL",
        "region_slug": "budhlada",
        "latitude": "29.9267",
        "longitude": "75.5542"
    },
    {
        "city_code": "BUHA",
        "region_code": "BUHA",
        "sub_region_code": "BUHA",
        "region_slug": "buhari",
        "latitude": "22.16469",
        "longitude": "73.04608"
    },
    {
        "city_code": "BULA",
        "region_code": "BULA",
        "sub_region_code": "BULA",
        "region_slug": "bulandshahr",
        "latitude": "28.407",
        "longitude": "77.8498"
    },
    {
        "city_code": "BULD",
        "region_code": "BULD",
        "sub_region_code": "BULD",
        "region_slug": "buldana",
        "latitude": "20.4561",
        "longitude": "76.3637"
    },
    {
        "city_code": "BUND",
        "region_code": "BUND",
        "sub_region_code": "BUND",
        "region_slug": "bundu",
        "latitude": "23.16",
        "longitude": "85.5869"
    },
    {
        "city_code": "BURD",
        "region_code": "BURD",
        "sub_region_code": "BURD",
        "region_slug": "burdwan",
        "latitude": "23.23243",
        "longitude": "87.863731"
    },
    {
        "city_code": "BRHP",
        "region_code": "BRHP",
        "sub_region_code": "BRHP",
        "region_slug": "burhanpur",
        "latitude": "21.31939",
        "longitude": "76.222426"
    },
    {
        "city_code": "BRHR",
        "region_code": "BRHR",
        "sub_region_code": "BRHR",
        "region_slug": "burhar",
        "latitude": "23.192",
        "longitude": "81.5706"
    },
    {
        "city_code": "BUTY",
        "region_code": "BUTY",
        "sub_region_code": "BUTY",
        "region_slug": "buttayagudem",
        "latitude": "17.2027",
        "longitude": "81.32"
    },
    {
        "city_code": "BYAD",
        "region_code": "BYAD",
        "sub_region_code": "BYAD",
        "region_slug": "byadagi",
        "latitude": "14.6814",
        "longitude": "75.4869"
    },
    {
        "city_code": "BYDA",
        "region_code": "BYDA",
        "sub_region_code": "BYDA",
        "region_slug": "byadgi",
        "latitude": "14.6814",
        "longitude": "75.4869"
    },
    {
        "city_code": "BYAS",
        "region_code": "BYAS",
        "sub_region_code": "BYAS",
        "region_slug": "byasanagar",
        "latitude": "20.9551",
        "longitude": "86.1271"
    },
    {
        "city_code": "CALC",
        "region_code": "CALC",
        "sub_region_code": "CALC",
        "region_slug": "calicut",
        "latitude": "11.2588",
        "longitude": "75.7804"
    },
    {
        "city_code": "CANN",
        "region_code": "CANN",
        "sub_region_code": "CANN",
        "region_slug": "canning",
        "latitude": "22.314022",
        "longitude": "88.667895"
    },
    {
        "city_code": "CHAG",
        "region_code": "CHAG",
        "sub_region_code": "CHAG",
        "region_slug": "chagallu",
        "latitude": "16.993",
        "longitude": "81.6668"
    },
    {
        "city_code": "CHAL",
        "region_code": "CHAL",
        "sub_region_code": "CHAL",
        "region_slug": "chalakudy",
        "latitude": "10.307",
        "longitude": "76.3341"
    },
    {
        "city_code": "CHLS",
        "region_code": "CHLS",
        "sub_region_code": "CHLS",
        "region_slug": "chalisgaon",
        "latitude": "20.4641",
        "longitude": "74.9969"
    },
    {
        "city_code": "CHLA",
        "region_code": "CHLA",
        "sub_region_code": "CHLA",
        "region_slug": "challakere",
        "latitude": "14.3134",
        "longitude": "76.6528"
    },
    {
        "city_code": "CHAP",
        "region_code": "CHAP",
        "sub_region_code": "CHAP",
        "region_slug": "challapalli",
        "latitude": "16.1148",
        "longitude": "80.9291"
    },
    {
        "city_code": "CHAJ",
        "region_code": "CHAJ",
        "sub_region_code": "CHAJ",
        "region_slug": "chamarajnagar",
        "latitude": "11.926147",
        "longitude": "76.943733"
    },
    {
        "city_code": "CHMB",
        "region_code": "CHMB",
        "sub_region_code": "CHMB",
        "region_slug": "chamba",
        "latitude": "32.5534",
        "longitude": "76.1258"
    },
    {
        "city_code": "CHMK",
        "region_code": "CHMK",
        "sub_region_code": "CHMK",
        "region_slug": "chamoli",
        "latitude": "30.2937",
        "longitude": "79.5603"
    },
    {
        "city_code": "CHAM",
        "region_code": "CHAM",
        "sub_region_code": "CHAM",
        "region_slug": "champa",
        "latitude": "22.032",
        "longitude": "82.6537"
    },
    {
        "city_code": "CHAI",
        "region_code": "CHAI",
        "sub_region_code": "CHAI",
        "region_slug": "champahati",
        "latitude": "22.401168",
        "longitude": "88.474939"
    },
    {
        "city_code": "CCWC",
        "region_code": "CCWC",
        "sub_region_code": "CCWC",
        "region_slug": "chanchal",
        "latitude": "25.383",
        "longitude": "88.0167"
    },
    {
        "city_code": "CHDD",
        "region_code": "CHDD",
        "sub_region_code": "CHDD",
        "region_slug": "chandannagar",
        "latitude": "22.861635",
        "longitude": "88.350919"
    },
    {
        "city_code": "CHDN",
        "region_code": "CHDN",
        "sub_region_code": "CHDN",
        "region_slug": "chandausi",
        "latitude": "28.4481",
        "longitude": "78.7796"
    },
    {
        "city_code": "CHAZ",
        "region_code": "CHAZ",
        "sub_region_code": "CHAZ",
        "region_slug": "chandbali",
        "latitude": "20.774",
        "longitude": "86.7437"
    },
    {
        "city_code": "CHHA",
        "region_code": "CHHA",
        "sub_region_code": "CHHA",
        "region_slug": "chandpur-siau",
        "latitude": "29.134576",
        "longitude": "78.24978"
    },
    {
        "city_code": "CKNA",
        "region_code": "CKNA",
        "sub_region_code": "CKNA",
        "region_slug": "chandrakona",
        "latitude": "22.7329",
        "longitude": "87.5169"
    },
    {
        "city_code": "CHAN",
        "region_code": "CHAN",
        "sub_region_code": "CHAN",
        "region_slug": "chandrapur",
        "latitude": "19.95",
        "longitude": "79.3"
    },
    {
        "city_code": "CAND",
        "region_code": "CAND",
        "sub_region_code": "CAND",
        "region_slug": "chandur",
        "latitude": "16.9795",
        "longitude": "79.056"
    },
    {
        "city_code": "CNSY",
        "region_code": "CNSY",
        "sub_region_code": "CNSY",
        "region_slug": "changanassery",
        "latitude": "9.4459",
        "longitude": "76.541"
    },
    {
        "city_code": "CHAA",
        "region_code": "CHAA",
        "sub_region_code": "CHAA",
        "region_slug": "changaramkulam",
        "latitude": "10.7363",
        "longitude": "76.029"
    },
    {
        "city_code": "CHGI",
        "region_code": "CHGI",
        "sub_region_code": "CHGI",
        "region_slug": "channagiri",
        "latitude": "14.0242",
        "longitude": "75.926"
    },
    {
        "city_code": "CPTN",
        "region_code": "CPTN",
        "sub_region_code": "CPTN",
        "region_slug": "channapatna",
        "latitude": "12.6511",
        "longitude": "77.194619"
    },
    {
        "city_code": "CHNN",
        "region_code": "CHNN",
        "sub_region_code": "CHNN",
        "region_slug": "channarayapatna",
        "latitude": "12.9",
        "longitude": "76.3899"
    },
    {
        "city_code": "CHAT",
        "region_code": "CHAT",
        "sub_region_code": "CHAT",
        "region_slug": "chanpatia",
        "latitude": "26.9445",
        "longitude": "84.5379"
    },
    {
        "city_code": "CHPR",
        "region_code": "CHPR",
        "sub_region_code": "CHPR",
        "region_slug": "chapra",
        "latitude": "25.7811",
        "longitude": "84.7543"
    },
    {
        "city_code": "CCDD",
        "region_code": "CCDD",
        "sub_region_code": "CCDD",
        "region_slug": "charkhi-dadri",
        "latitude": "28.5921",
        "longitude": "76.2653"
    },
    {
        "city_code": "CHOG",
        "region_code": "CHOG",
        "sub_region_code": "CHOG",
        "region_slug": "chaygaon",
        "latitude": "26.0481",
        "longitude": "91.3867"
    },
    {
        "city_code": "CHEK",
        "region_code": "CHEK",
        "sub_region_code": "CHEK",
        "region_slug": "cheeka",
        "latitude": "30.049",
        "longitude": "76.342"
    },
    {
        "city_code": "CHEE",
        "region_code": "CHEE",
        "sub_region_code": "CHEE",
        "region_slug": "cheepurupalli",
        "latitude": "18.3105",
        "longitude": "83.5683"
    },
    {
        "city_code": "CHEL",
        "region_code": "CHEL",
        "sub_region_code": "CHEL",
        "region_slug": "chelpur",
        "latitude": "18.3705",
        "longitude": "79.8451"
    },
    {
        "city_code": "CNPI",
        "region_code": "CNPI",
        "sub_region_code": "CNPI",
        "region_slug": "chendrapinni",
        "latitude": "10.3564",
        "longitude": "76.1276"
    },
    {
        "city_code": "CHET",
        "region_code": "CHET",
        "sub_region_code": "CHET",
        "region_slug": "chengalpattu",
        "latitude": "12.684",
        "longitude": "79.9833"
    },
    {
        "city_code": "CHEG",
        "region_code": "CHEG",
        "sub_region_code": "CHEG",
        "region_slug": "chengannur",
        "latitude": "9.3183",
        "longitude": "76.6111"
    },
    {
        "city_code": "CHNU",
        "region_code": "CHNU",
        "sub_region_code": "CHNU",
        "region_slug": "chennur",
        "latitude": "18.8541",
        "longitude": "79.791"
    },
    {
        "city_code": "CHEI",
        "region_code": "CHEI",
        "sub_region_code": "CHEI",
        "region_slug": "chenthrapini",
        "latitude": "10.356484",
        "longitude": "76.123613"
    },
    {
        "city_code": "CHRY",
        "region_code": "CHRY",
        "sub_region_code": "CHRY",
        "region_slug": "cherial",
        "latitude": "17.9283",
        "longitude": "78.9684"
    },
    {
        "city_code": "CHRL",
        "region_code": "CHRL",
        "sub_region_code": "CHRL",
        "region_slug": "cherla",
        "latitude": "18.0725",
        "longitude": "80.8267"
    },
    {
        "city_code": "CHER",
        "region_code": "CHER",
        "sub_region_code": "CHER",
        "region_slug": "cherpulassery",
        "latitude": "10.8789",
        "longitude": "76.3114"
    },
    {
        "city_code": "CHPU",
        "region_code": "CHPU",
        "sub_region_code": "CHPU",
        "region_slug": "cherrapunji",
        "latitude": "25.273684",
        "longitude": "91.725358"
    },
    {
        "city_code": "CRTL",
        "region_code": "CRTL",
        "sub_region_code": "CRTL",
        "region_slug": "cherthala",
        "latitude": "9.6836",
        "longitude": "76.3365"
    },
    {
        "city_code": "PPPT",
        "region_code": "PPPT",
        "sub_region_code": "PPPT",
        "region_slug": "chetpet",
        "latitude": "13.0714",
        "longitude": "80.2417"
    },
    {
        "city_code": "CHEV",
        "region_code": "CHEV",
        "sub_region_code": "CHEV",
        "region_slug": "chevella",
        "latitude": "17.3124",
        "longitude": "78.1385"
    },
    {
        "city_code": "CHEY",
        "region_code": "CHEY",
        "sub_region_code": "CHEY",
        "region_slug": "cheyyar",
        "latitude": "12.662",
        "longitude": "79.5435"
    },
    {
        "city_code": "CHYR",
        "region_code": "CHYR",
        "sub_region_code": "CHYR",
        "region_slug": "cheyyur",
        "latitude": "12.34264",
        "longitude": "80.0114"
    },
    {
        "city_code": "CHHB",
        "region_code": "CHHB",
        "sub_region_code": "CHHB",
        "region_slug": "chhabra",
        "latitude": "24.66472",
        "longitude": "76.84379"
    },
    {
        "city_code": "CHHT",
        "region_code": "CHHT",
        "sub_region_code": "CHHT",
        "region_slug": "chhatarpur",
        "latitude": "24.9164",
        "longitude": "79.5812"
    },
    {
        "city_code": "AURA",
        "region_code": "AURA",
        "sub_region_code": "AURA",
        "region_slug": "chhatrapati-sambhajinagar",
        "latitude": "19.876",
        "longitude": "75.349"
    },
    {
        "city_code": "CHHI",
        "region_code": "CHHI",
        "sub_region_code": "CHHI",
        "region_slug": "chhibramau",
        "latitude": "27.15",
        "longitude": "79.4999"
    },
    {
        "city_code": "CHIN",
        "region_code": "CHIN",
        "sub_region_code": "CHIN",
        "region_slug": "chhindwara",
        "latitude": "22.057314",
        "longitude": "78.93602"
    },
    {
        "city_code": "CHKA",
        "region_code": "CHKA",
        "sub_region_code": "CHKA",
        "region_slug": "chickmagaluru",
        "latitude": "13.3153",
        "longitude": "75.7754"
    },
    {
        "city_code": "CHID",
        "region_code": "CHID",
        "sub_region_code": "CHID",
        "region_slug": "chidambaram",
        "latitude": "11.3982",
        "longitude": "79.6954"
    },
    {
        "city_code": "CHIH",
        "region_code": "CHIH",
        "sub_region_code": "CHIH",
        "region_slug": "chikhli",
        "latitude": "20.345909",
        "longitude": "76.252764"
    },
    {
        "city_code": "CHIK",
        "region_code": "CHIK",
        "sub_region_code": "CHIK",
        "region_slug": "chikkaballapur",
        "latitude": "13.4324",
        "longitude": "77.728"
    },
    {
        "city_code": "CHUR",
        "region_code": "CHUR",
        "sub_region_code": "CHUR",
        "region_slug": "chikmagalur",
        "latitude": "13.3153",
        "longitude": "75.7754"
    },
    {
        "city_code": "CHOK",
        "region_code": "CHOK",
        "sub_region_code": "CHOK",
        "region_slug": "chikodi",
        "latitude": "16.4292",
        "longitude": "74.5879"
    },
    {
        "city_code": "CHIL",
        "region_code": "CHIL",
        "sub_region_code": "CHIL",
        "region_slug": "chilakaluripet",
        "latitude": "16.0924",
        "longitude": "80.1624"
    },
    {
        "city_code": "CNPT",
        "region_code": "CNPT",
        "sub_region_code": "CNPT",
        "region_slug": "chinnalapatti",
        "latitude": "10.2851",
        "longitude": "77.9225"
    },
    {
        "city_code": "CHNA",
        "region_code": "CHNA",
        "sub_region_code": "CHNA",
        "region_slug": "chinnamandem",
        "latitude": "13.9365",
        "longitude": "78.6824"
    },
    {
        "city_code": "CHAR",
        "region_code": "CHAR",
        "sub_region_code": "CHAR",
        "region_slug": "chinnamanur",
        "latitude": "9.8422",
        "longitude": "77.3828"
    },
    {
        "city_code": "CHSA",
        "region_code": "CHSA",
        "sub_region_code": "CHSA",
        "region_slug": "chinsurah",
        "latitude": "22.9012",
        "longitude": "88.3899"
    },
    {
        "city_code": "CHPD",
        "region_code": "CHPD",
        "sub_region_code": "CHPD",
        "region_slug": "chintalapudi",
        "latitude": "17.0697",
        "longitude": "80.9876"
    },
    {
        "city_code": "CHTI",
        "region_code": "CHTI",
        "sub_region_code": "CHTI",
        "region_slug": "chintamani",
        "latitude": "13.402",
        "longitude": "78.0551"
    },
    {
        "city_code": "CHTN",
        "region_code": "CHTN",
        "sub_region_code": "CHTN",
        "region_slug": "chinturu",
        "latitude": "17.743896",
        "longitude": "81.397595"
    },
    {
        "city_code": "CHPL",
        "region_code": "CHPL",
        "sub_region_code": "CHPL",
        "region_slug": "chiplun",
        "latitude": "17.5319",
        "longitude": "73.5151"
    },
    {
        "city_code": "CHYO",
        "region_code": "CHYO",
        "sub_region_code": "CHYO",
        "region_slug": "chiraiyakot",
        "latitude": "25.8824",
        "longitude": "83.3308"
    },
    {
        "city_code": "CHIR",
        "region_code": "CHIR",
        "sub_region_code": "CHIR",
        "region_slug": "chirala",
        "latitude": "15.8136",
        "longitude": "80.3547"
    },
    {
        "city_code": "CWRJ",
        "region_code": "CWRJ",
        "sub_region_code": "CWRJ",
        "region_slug": "chirawa",
        "latitude": "28.2416",
        "longitude": "75.6499"
    },
    {
        "city_code": "CHIT",
        "region_code": "CHIT",
        "sub_region_code": "CHIT",
        "region_slug": "chitradurga",
        "latitude": "14.1823",
        "longitude": "76.5488"
    },
    {
        "city_code": "CHTT",
        "region_code": "CHTT",
        "sub_region_code": "CHTT",
        "region_slug": "chittoor",
        "latitude": "13.2218",
        "longitude": "79.101"
    },
    {
        "city_code": "COTT",
        "region_code": "COTT",
        "sub_region_code": "COTT",
        "region_slug": "chittorgarh",
        "latitude": "24.879999",
        "longitude": "74.629997"
    },
    {
        "city_code": "CDVM",
        "region_code": "CDVM",
        "sub_region_code": "CDVM",
        "region_slug": "chodavaram",
        "latitude": "17.831381",
        "longitude": "82.934022"
    },
    {
        "city_code": "CHBR",
        "region_code": "CHBR",
        "sub_region_code": "CHBR",
        "region_slug": "chon-buri",
        "latitude": "13.2017",
        "longitude": "101.2524"
    },
    {
        "city_code": "CHOT",
        "region_code": "CHOT",
        "sub_region_code": "CHOT",
        "region_slug": "chotila",
        "latitude": "22.4236",
        "longitude": "71.1946"
    },
    {
        "city_code": "CHOU",
        "region_code": "CHOU",
        "sub_region_code": "CHOU",
        "region_slug": "choutuppal",
        "latitude": "17.250523",
        "longitude": "78.897665"
    },
    {
        "city_code": "CHUC",
        "region_code": "CHUC",
        "sub_region_code": "CHUC",
        "region_slug": "churachandpur",
        "latitude": "24.331168",
        "longitude": "92.876492"
    },
    {
        "city_code": "CHRU",
        "region_code": "CHRU",
        "sub_region_code": "CHRU",
        "region_slug": "churu",
        "latitude": "28.3254",
        "longitude": "74.4057"
    },
    {
        "city_code": "COIM",
        "region_code": "COIM",
        "sub_region_code": "COIM",
        "region_slug": "coimbatore",
        "latitude": "11.016845",
        "longitude": "76.955832"
    },
    {
        "city_code": "COLO",
        "region_code": "COLO",
        "sub_region_code": "COLO",
        "region_slug": "colombo",
        "latitude": "6.9271",
        "longitude": "79.8612"
    },
    {
        "city_code": "COBE",
        "region_code": "COBE",
        "sub_region_code": "COBE",
        "region_slug": "cooch-behar",
        "latitude": "26.3234",
        "longitude": "89.3227"
    },
    {
        "city_code": "CUNR",
        "region_code": "CUNR",
        "sub_region_code": "CUNR",
        "region_slug": "coonoor",
        "latitude": "11.353",
        "longitude": "76.7959"
    },
    {
        "city_code": "CUDD",
        "region_code": "CUDD",
        "sub_region_code": "CUDD",
        "region_slug": "cuddalore",
        "latitude": "11.7447",
        "longitude": "79.768"
    },
    {
        "city_code": "CMBM",
        "region_code": "CMBM",
        "sub_region_code": "CMBM",
        "region_slug": "cumbum",
        "latitude": "9.7344",
        "longitude": "77.2807"
    },
    {
        "city_code": "CUMB",
        "region_code": "CUMB",
        "sub_region_code": "CUMB",
        "region_slug": "cumbum-ap",
        "latitude": "15.590055",
        "longitude": "79.112387"
    },
    {
        "city_code": "CUTT",
        "region_code": "CUTT",
        "sub_region_code": "CUTT",
        "region_slug": "cuttack",
        "latitude": "20.4625",
        "longitude": "85.883"
    },
    {
        "city_code": "DABR",
        "region_code": "DABR",
        "sub_region_code": "DABR",
        "region_slug": "dabra",
        "latitude": "25.8907",
        "longitude": "78.3325"
    },
    {
        "city_code": "DHAU",
        "region_code": "DHAU",
        "sub_region_code": "DHAU",
        "region_slug": "dahanu",
        "latitude": "19.9811",
        "longitude": "72.7452"
    },
    {
        "city_code": "DHGM",
        "region_code": "DHGM",
        "sub_region_code": "DHGM",
        "region_slug": "dahegam",
        "latitude": "23.164362",
        "longitude": "72.810512"
    },
    {
        "city_code": "DAHO",
        "region_code": "DAHO",
        "sub_region_code": "DAHO",
        "region_slug": "dahod",
        "latitude": "22.8596",
        "longitude": "74.124"
    },
    {
        "city_code": "DAKS",
        "region_code": "DAKS",
        "sub_region_code": "DAKS",
        "region_slug": "dakshin-barasat",
        "latitude": "22.2251",
        "longitude": "88.4452"
    },
    {
        "city_code": "DALL",
        "region_code": "DALL",
        "sub_region_code": "DALL",
        "region_slug": "dalli-rajhara",
        "latitude": "20.5831",
        "longitude": "81.081"
    },
    {
        "city_code": "DAAL",
        "region_code": "DAAL",
        "sub_region_code": "DAAL",
        "region_slug": "dalmianagar",
        "latitude": "24.9247",
        "longitude": "84.1883"
    },
    {
        "city_code": "DAMA",
        "region_code": "DAMA",
        "sub_region_code": "DAMA",
        "region_slug": "daman",
        "latitude": "20.4283",
        "longitude": "72.8397"
    },
    {
        "city_code": "DMPT",
        "region_code": "DMPT",
        "sub_region_code": "DMPT",
        "region_slug": "dammapeta",
        "latitude": "17.2674",
        "longitude": "81.0106"
    },
    {
        "city_code": "DAMO",
        "region_code": "DAMO",
        "sub_region_code": "DAMO",
        "region_slug": "damoh",
        "latitude": "23.8381",
        "longitude": "79.4422"
    },
    {
        "city_code": "DANA",
        "region_code": "DANA",
        "sub_region_code": "DANA",
        "region_slug": "danapur",
        "latitude": "25.6241",
        "longitude": "85.0414"
    },
    {
        "city_code": "DAND",
        "region_code": "DAND",
        "sub_region_code": "DAND",
        "region_slug": "dandeli",
        "latitude": "15.2497",
        "longitude": "74.6174"
    },
    {
        "city_code": "DANG",
        "region_code": "DANG",
        "sub_region_code": "DANG",
        "region_slug": "dang",
        "latitude": "20.8254",
        "longitude": "73.7007"
    },
    {
        "city_code": "DAUK",
        "region_code": "DAUK",
        "sub_region_code": "DAUK",
        "region_slug": "dankaur",
        "latitude": "28.3477",
        "longitude": "77.5533"
    },
    {
        "city_code": "DAPO",
        "region_code": "DAPO",
        "sub_region_code": "DAPO",
        "region_slug": "daporijo",
        "latitude": "27.9863",
        "longitude": "94.2205"
    },
    {
        "city_code": "DARB",
        "region_code": "DARB",
        "sub_region_code": "DARB",
        "region_slug": "darbhanga",
        "latitude": "26.1119",
        "longitude": "85.896"
    },
    {
        "city_code": "DARJ",
        "region_code": "DARJ",
        "sub_region_code": "DARJ",
        "region_slug": "darjeeling",
        "latitude": "27.035718",
        "longitude": "88.262358"
    },
    {
        "city_code": "DRLA",
        "region_code": "DRLA",
        "sub_region_code": "DRLA",
        "region_slug": "darlapudi",
        "latitude": "17.484624",
        "longitude": "82.735847"
    },
    {
        "city_code": "DARS",
        "region_code": "DARS",
        "sub_region_code": "DARS",
        "region_slug": "darsi",
        "latitude": "15.77",
        "longitude": "79.6794"
    },
    {
        "city_code": "DARA",
        "region_code": "DARA",
        "sub_region_code": "DARA",
        "region_slug": "darwha",
        "latitude": "20.3104",
        "longitude": "77.7738"
    },
    {
        "city_code": "DASU",
        "region_code": "DASU",
        "sub_region_code": "DASU",
        "region_slug": "dasuya",
        "latitude": "31.8132",
        "longitude": "75.6637"
    },
    {
        "city_code": "DATI",
        "region_code": "DATI",
        "sub_region_code": "DATI",
        "region_slug": "datia",
        "latitude": "25.6653",
        "longitude": "78.4609"
    },
    {
        "city_code": "DAUN",
        "region_code": "DAUN",
        "sub_region_code": "DAUN",
        "region_slug": "daund",
        "latitude": "18.4631",
        "longitude": "74.584"
    },
    {
        "city_code": "DAUS",
        "region_code": "DAUS",
        "sub_region_code": "DAUS",
        "region_slug": "dausa",
        "latitude": "26.873968",
        "longitude": "76.326712"
    },
    {
        "city_code": "DAVA",
        "region_code": "DAVA",
        "sub_region_code": "DAVA",
        "region_slug": "davanagere",
        "latitude": "14.4663",
        "longitude": "75.9238"
    },
    {
        "city_code": "DVLR",
        "region_code": "DVLR",
        "sub_region_code": "DVLR",
        "region_slug": "davuluru",
        "latitude": "16.2633",
        "longitude": "80.7429"
    },
    {
        "city_code": "DEES",
        "region_code": "DEES",
        "sub_region_code": "DEES",
        "region_slug": "deesa",
        "latitude": "24.2585",
        "longitude": "72.1907"
    },
    {
        "city_code": "DEH",
        "region_code": "DEH",
        "sub_region_code": "DEH",
        "region_slug": "dehradun",
        "latitude": "30.316495",
        "longitude": "78.032192"
    },
    {
        "city_code": "DEOD",
        "region_code": "DEOD",
        "sub_region_code": "DEOD",
        "region_slug": "deogadh",
        "latitude": "18.649045",
        "longitude": "73.498393"
    },
    {
        "city_code": "DOGH",
        "region_code": "DOGH",
        "sub_region_code": "DOGH",
        "region_slug": "deoghar",
        "latitude": "24.4763",
        "longitude": "86.6913"
    },
    {
        "city_code": "DEOL",
        "region_code": "DEOL",
        "sub_region_code": "DEOL",
        "region_slug": "deoli",
        "latitude": "20.65",
        "longitude": "78.4786"
    },
    {
        "city_code": "DEOY",
        "region_code": "DEOY",
        "sub_region_code": "DEOY",
        "region_slug": "deoli-rajasthan",
        "latitude": "25.7582",
        "longitude": "75.3818"
    },
    {
        "city_code": "DEOY",
        "region_code": "DEOY",
        "sub_region_code": "DEOY",
        "region_slug": "deolirajasthan",
        "latitude": "25.7582",
        "longitude": "75.3818"
    },
    {
        "city_code": "DEEO",
        "region_code": "DEEO",
        "sub_region_code": "DEEO",
        "region_slug": "deoria",
        "latitude": "26.5024",
        "longitude": "83.7791"
    },
    {
        "city_code": "DEVD",
        "region_code": "DEVD",
        "sub_region_code": "DEVD",
        "region_slug": "devadurga",
        "latitude": "16.4235",
        "longitude": "76.9355"
    },
    {
        "city_code": "DEVA",
        "region_code": "DEVA",
        "sub_region_code": "DEVA",
        "region_slug": "devakottai",
        "latitude": "9.944",
        "longitude": "78.8219"
    },
    {
        "city_code": "DEVR",
        "region_code": "DEVR",
        "sub_region_code": "DEVR",
        "region_slug": "devarakadra",
        "latitude": "16.6248",
        "longitude": "77.841"
    },
    {
        "city_code": "DEVK",
        "region_code": "DEVK",
        "sub_region_code": "DEVK",
        "region_slug": "devarakonda",
        "latitude": "16.688531",
        "longitude": "78.906362"
    },
    {
        "city_code": "DVRL",
        "region_code": "DVRL",
        "sub_region_code": "DVRL",
        "region_slug": "devarapalle",
        "latitude": "17.9878",
        "longitude": "82.9838"
    },
    {
        "city_code": "DVRP",
        "region_code": "DVRP",
        "sub_region_code": "DVRP",
        "region_slug": "devarapalli",
        "latitude": "17.035",
        "longitude": "81.5624"
    },
    {
        "city_code": "DEGA",
        "region_code": "DEGA",
        "sub_region_code": "DEGA",
        "region_slug": "devgad",
        "latitude": "16.3754",
        "longitude": "73.3886"
    },
    {
        "city_code": "DEWAS",
        "region_code": "DEWAS",
        "sub_region_code": "DEWAS",
        "region_slug": "dewas",
        "latitude": "22.9623",
        "longitude": "76.0508"
    },
    {
        "city_code": "DMND",
        "region_code": "DMND",
        "sub_region_code": "DMND",
        "region_slug": "dhamnod",
        "latitude": "22.2139",
        "longitude": "75.4723"
    },
    {
        "city_code": "DHPR",
        "region_code": "DHPR",
        "sub_region_code": "DHPR",
        "region_slug": "dhampur",
        "latitude": "29.309565",
        "longitude": "78.51083"
    },
    {
        "city_code": "DHMT",
        "region_code": "DHMT",
        "sub_region_code": "DHMT",
        "region_slug": "dhamtari",
        "latitude": "20.7015",
        "longitude": "81.5542"
    },
    {
        "city_code": "CFFG",
        "region_code": "CFFG",
        "sub_region_code": "CFFG",
        "region_slug": "dhanaura",
        "latitude": "28.9546",
        "longitude": "78.2647"
    },
    {
        "city_code": "DHAN",
        "region_code": "DHAN",
        "sub_region_code": "DHAN",
        "region_slug": "dhanbad",
        "latitude": "23.795653",
        "longitude": "86.430386"
    },
    {
        "city_code": "DHAC",
        "region_code": "DHAC",
        "sub_region_code": "DHAC",
        "region_slug": "dhanera",
        "latitude": "24.5064",
        "longitude": "72.0258"
    },
    {
        "city_code": "DARH",
        "region_code": "DARH",
        "sub_region_code": "DARH",
        "region_slug": "dhar",
        "latitude": "22.4959",
        "longitude": "75.1545"
    },
    {
        "city_code": "SHGA",
        "region_code": "SHGA",
        "sub_region_code": "SHGA",
        "region_slug": "dharamjaigarh",
        "latitude": "22.4622",
        "longitude": "83.2104"
    },
    {
        "city_code": "DPUR",
        "region_code": "DPUR",
        "sub_region_code": "DPUR",
        "region_slug": "dharampur",
        "latitude": "20.5401",
        "longitude": "73.1792"
    },
    {
        "city_code": "DMSL",
        "region_code": "DMSL",
        "sub_region_code": "DMSL",
        "region_slug": "dharamsala",
        "latitude": "32.219393",
        "longitude": "76.324487"
    },
    {
        "city_code": "DMSL",
        "region_code": "DMSL",
        "sub_region_code": "DMSL",
        "region_slug": "dharamshala",
        "latitude": "32.219393",
        "longitude": "76.324487"
    },
    {
        "city_code": "DHAR",
        "region_code": "DHAR",
        "sub_region_code": "DHAR",
        "region_slug": "dharapuram",
        "latitude": "10.7329",
        "longitude": "77.5218"
    },
    {
        "city_code": "DHAT",
        "region_code": "DHAT",
        "sub_region_code": "DHAT",
        "region_slug": "dharmanagar",
        "latitude": "24.3783",
        "longitude": "92.1548"
    },
    {
        "city_code": "DMPI",
        "region_code": "DMPI",
        "sub_region_code": "DMPI",
        "region_slug": "dharmapuri",
        "latitude": "12.0933",
        "longitude": "78.202"
    },
    {
        "city_code": "DDMA",
        "region_code": "DDMA",
        "sub_region_code": "DDMA",
        "region_slug": "dharmavaram",
        "latitude": "14.4137",
        "longitude": "77.7126"
    },
    {
        "city_code": "DPLL",
        "region_code": "DPLL",
        "sub_region_code": "DPLL",
        "region_slug": "dharpally",
        "latitude": "18.784848",
        "longitude": "78.295187"
    },
    {
        "city_code": "DUUU",
        "region_code": "DUUU",
        "sub_region_code": "DUUU",
        "region_slug": "dharpur",
        "latitude": "23.8444",
        "longitude": "72.2016"
    },
    {
        "city_code": "DHRA",
        "region_code": "DHRA",
        "sub_region_code": "DHRA",
        "region_slug": "dharuhera",
        "latitude": "28.20598",
        "longitude": "76.788995"
    },
    {
        "city_code": "DHAW",
        "region_code": "DHAW",
        "sub_region_code": "DHAW",
        "region_slug": "dharwad",
        "latitude": "15.4589",
        "longitude": "75.0078"
    },
    {
        "city_code": "DHAL",
        "region_code": "DHAL",
        "sub_region_code": "DHAL",
        "region_slug": "dhaulana",
        "latitude": "28.6324",
        "longitude": "77.6507"
    },
    {
        "city_code": "DHEM",
        "region_code": "DHEM",
        "sub_region_code": "DHEM",
        "region_slug": "dhemaji",
        "latitude": "27.472",
        "longitude": "94.5588"
    },
    {
        "city_code": "DNAL",
        "region_code": "DNAL",
        "sub_region_code": "DNAL",
        "region_slug": "dhenkanal",
        "latitude": "20.8424",
        "longitude": "85.4376"
    },
    {
        "city_code": "DHOL",
        "region_code": "DHOL",
        "sub_region_code": "DHOL",
        "region_slug": "dholka",
        "latitude": "22.7428",
        "longitude": "72.4436"
    },
    {
        "city_code": "DHUR",
        "region_code": "DHUR",
        "sub_region_code": "DHUR",
        "region_slug": "dholpur",
        "latitude": "26.7025",
        "longitude": "77.8934"
    },
    {
        "city_code": "DHON",
        "region_code": "DHON",
        "sub_region_code": "DHON",
        "region_slug": "dhone",
        "latitude": "15.396",
        "longitude": "77.8732"
    },
    {
        "city_code": "DHOR",
        "region_code": "DHOR",
        "sub_region_code": "DHOR",
        "region_slug": "dhoraji",
        "latitude": "21.7398",
        "longitude": "70.4491"
    },
    {
        "city_code": "DHRN",
        "region_code": "DHRN",
        "sub_region_code": "DHRN",
        "region_slug": "dhrangadhra",
        "latitude": "22.983225",
        "longitude": "71.474461"
    },
    {
        "city_code": "DHBR",
        "region_code": "DHBR",
        "sub_region_code": "DHBR",
        "region_slug": "dhubri",
        "latitude": "26.022339",
        "longitude": "89.978896"
    },
    {
        "city_code": "DHLE",
        "region_code": "DHLE",
        "sub_region_code": "DHLE",
        "region_slug": "dhule",
        "latitude": "20.9042",
        "longitude": "74.7749"
    },
    {
        "city_code": "DHAA",
        "region_code": "DHAA",
        "sub_region_code": "DHAA",
        "region_slug": "dhulian",
        "latitude": "24.6707",
        "longitude": "87.9482"
    },
    {
        "city_code": "DHUI",
        "region_code": "DHUI",
        "sub_region_code": "DHUI",
        "region_slug": "dhuliyan",
        "latitude": "24.6707",
        "longitude": "87.9482"
    },
    {
        "city_code": "DHRI",
        "region_code": "DHRI",
        "sub_region_code": "DHRI",
        "region_slug": "dhuri",
        "latitude": "30.37183",
        "longitude": "75.861707"
    },
    {
        "city_code": "MNHR",
        "region_code": "MNHR",
        "sub_region_code": "MNHR",
        "region_slug": "diamond-harbour",
        "latitude": "22.192499",
        "longitude": "88.189499"
    },
    {
        "city_code": "DIB",
        "region_code": "DIB",
        "sub_region_code": "DIB",
        "region_slug": "dibrugarh",
        "latitude": "27.472833",
        "longitude": "94.911962"
    },
    {
        "city_code": "DIGR",
        "region_code": "DIGR",
        "sub_region_code": "DIGR",
        "region_slug": "digras",
        "latitude": "20.1073",
        "longitude": "77.7166"
    },
    {
        "city_code": "DLDR",
        "region_code": "DLDR",
        "sub_region_code": "DLDR",
        "region_slug": "dildar-nagar",
        "latitude": "25.426151",
        "longitude": "83.672076"
    },